UUID,Template,Street,City,State,Zip,OutputStreet,OutputCity,OutputState,OutputZip,Lon,Lat,Header,SL,SL2,County,RFD_ID,FS,WZ,PWF_DistanceInFeet,YrBuilt,LivingArea,Baths,HalfBaths,HalfBaths,InputStreet,InputCity,InputState,InputZip,NumCandidates,NumCloseCandidates,GoodCandidate
583cf25e56f58,RMIatTXwithRMS,2322 Sunstone Place Dr.,Rosharon,TX,77583,2322 SUNSTONE PLACE DR,ROSHARON,TX,77583,-95.440363,29.439269,eyJ0eXAiOiJKV1QiLCJhbGciOiJIUzI1NiJ9.eyJpc3MiOiI1ODBmOWY1NjYzZjM5MDAwOTM2ZTA3ZmUiLCJleHAiOm51bGx9.8nW7NQwr066mjDZ-UjRXuLpeWBf8y9Vt5G7CoxMchoA,24.9,21.7,Brazoria,RM480390440,3.71,,44,2013,1393,,,,,,,,,,
583ce650efa1c,RMIatTXwithRMS,11703 Eagle Ridge Dr,Dayton,TX,77535,11703 EAGLE RIDGE DR,DAYTON,TX,77535,-94.877324,29.871018,eyJ0eXAiOiJKV1QiLCJhbGciOiJIUzI1NiJ9.eyJpc3MiOiI1ODBmOWY1NjYzZjM5MDAwOTM2ZTA3ZmUiLCJleHAiOm51bGx9.8nW7NQwr066mjDZ-UjRXuLpeWBf8y9Vt5G7CoxMchoA,8.7,6.1,Chambers,RM480711070,1.52,,1891,,2480,,,,,,,,,,
583cd24d82da8,RMIatTXwithRMS,2103 Southwick,Houston,TX,77080,2103 SOUTHWICK ST,HOUSTON,TX,77080,-95.543434,29.811348,eyJ0eXAiOiJKV1QiLCJhbGciOiJIUzI1NiJ9.eyJpc3MiOiI1ODBmOWY1NjYzZjM5MDAwOTM2ZTA3ZmUiLCJleHAiOm51bGx9.8nW7NQwr066mjDZ-UjRXuLpeWBf8y9Vt5G7CoxMchoA,35,30,Harris,RM482010310,1.33,OUT,10854,1962,2884,3,1,1,,,,,,,
583cc877ef8dd,RMIatTXwithRMS,5344 Safron Rose,San Antonio,TX,78253,5344 SAFFRON ROSE,SAN ANTONIO,TX,78253,-98.75284,29.485956,eyJ0eXAiOiJKV1QiLCJhbGciOiJIUzI1NiJ9.eyJpc3MiOiI1ODBmOWY1NjYzZjM5MDAwOTM2ZTA3ZmUiLCJleHAiOm51bGx9.8nW7NQwr066mjDZ-UjRXuLpeWBf8y9Vt5G7CoxMchoA,120.0,120.0,Bexar,RM480292950,4.52,OUT,114,,,,,,,,,,,,
583cc3f1b88c5,RMIatTXwithRMS,2111 LOMAX DR,LA PORTE,TX,77571,2111 LOMAX DR,LA PORTE,TX,77571,-95.059113,29.678022,eyJ0eXAiOiJKV1QiLCJhbGciOiJIUzI1NiJ9.eyJpc3MiOiI1ODBmOWY1NjYzZjM5MDAwOTM2ZTA3ZmUiLCJleHAiOm51bGx9.8nW7NQwr066mjDZ-UjRXuLpeWBf8y9Vt5G7CoxMchoA,3.5,2,Harris,RM482010531,1.33,OUT,7153,1980,1893,3,,,,,,,,,
583cbeaccc426,RMIatTXwithRMS,15223 Circling Hawk Ct,Houston,TX,77095,15223 CIRCLING HAWK CT,HOUSTON,TX,77095,-95.638643,29.883813,eyJ0eXAiOiJKV1QiLCJhbGciOiJIUzI1NiJ9.eyJpc3MiOiI1ODBmOWY1NjYzZjM5MDAwOTM2ZTA3ZmUiLCJleHAiOm51bGx9.8nW7NQwr066mjDZ-UjRXuLpeWBf8y9Vt5G7CoxMchoA,42,36,Harris,RM482010140,0.76,OUT,11184,2001,3286,4,1,1,,,,,,,
583cbea0f0673,RMIatTXwithRMS,11523 Creekhurst Dr.,Houston,TX,77099,11523 CREEKHURST DR,HOUSTON,TX,77099,-95.581882,29.664137,eyJ0eXAiOiJKV1QiLCJhbGciOiJIUzI1NiJ9.eyJpc3MiOiI1ODBmOWY1NjYzZjM5MDAwOTM2ZTA3ZmUiLCJleHAiOm51bGx9.8nW7NQwr066mjDZ-UjRXuLpeWBf8y9Vt5G7CoxMchoA,35,32,Harris,RM482010310,0.97,OUT,20557,1972,2169,2,,,,,,,,,
583cbe70d1161,RMIatTXwithRMS,11831 COPPERAS CREEK LN,SUGAR LAND,TX,77498,11831 COPPERAS CREEK DR,SUGAR LAND,TX,77498,-95.661856,29.643771,eyJ0eXAiOiJKV1QiLCJhbGciOiJIUzI1NiJ9.eyJpc3MiOiI1ODBmOWY1NjYzZjM5MDAwOTM2ZTA3ZmUiLCJleHAiOm51bGx9.8nW7NQwr066mjDZ-UjRXuLpeWBf8y9Vt5G7CoxMchoA,39,37,Fort Bend,RM481570250,2.48,OUT,2206,2000,2116,2,,,,,,,,,
583cbd0355e7a,RMIatTXwithRMS,3123 Tecumseh Court,Missouri City,TX,77459,3123 TECUMSEH CT,MISSOURI CITY,TX,77459,-95.514142,29.539367,eyJ0eXAiOiJKV1QiLCJhbGciOiJIUzI1NiJ9.eyJpc3MiOiI1ODBmOWY1NjYzZjM5MDAwOTM2ZTA3ZmUiLCJleHAiOm51bGx9.8nW7NQwr066mjDZ-UjRXuLpeWBf8y9Vt5G7CoxMchoA,30,30,Fort Bend,RM481570360,1.82,OUT,685,1992,2952,3,,,,,,,,,
583cbc2784f4e,RMIatTXwithRMS,24010 RAIN CREEK DR,Tomball,TX,77375,24010 RAIN CREEK DR,TOMBALL,TX,77375,-95.555656,30.110353,eyJ0eXAiOiJKV1QiLCJhbGciOiJIUzI1NiJ9.eyJpc3MiOiI1ODBmOWY1NjYzZjM5MDAwOTM2ZTA3ZmUiLCJleHAiOm51bGx9.8nW7NQwr066mjDZ-UjRXuLpeWBf8y9Vt5G7CoxMchoA,46,40,Harris,RM482010730,1.10,OUT,694,2004,3342,3,1,1,,,,,,,
583cbb6347a1b,RMIatTXwithRMS,10319 Buena Park Dr,Houston,TX,77089,10319 BUENA PARK DR,HOUSTON,TX,77089,-95.232516,29.614257,eyJ0eXAiOiJKV1QiLCJhbGciOiJIUzI1NiJ9.eyJpc3MiOiI1ODBmOWY1NjYzZjM5MDAwOTM2ZTA3ZmUiLCJleHAiOm51bGx9.8nW7NQwr066mjDZ-UjRXuLpeWBf8y9Vt5G7CoxMchoA,13.3,12.4,Harris,RM482010310,1.35,OUT,9328,1969,948,1,,,,,,,,,
583cbade0bf6a,RMIatTXwithRMS,1220 E. Mile 4 road,Palmhurst,TX,78573,1220 E MILE 4 RD,PALMHURST,TX,78573,-98.299505,26.27026,eyJ0eXAiOiJKV1QiLCJhbGciOiJIUzI1NiJ9.eyJpc3MiOiI1ODBmOWY1NjYzZjM5MDAwOTM2ZTA3ZmUiLCJleHAiOm51bGx9.8nW7NQwr066mjDZ-UjRXuLpeWBf8y9Vt5G7CoxMchoA,53,53,Hidalgo,RM482150233,2.16,OUT,269,1989,720,1,,,,,,,,,
583cb9a6a9680,RMIatTXwithRMS,7118 sundance meadows ln,richmond,TX,77407,7118 SUNDANCE MEADOWS LN,RICHMOND,TX,77407,-95.73402,29.700715,eyJ0eXAiOiJKV1QiLCJhbGciOiJIUzI1NiJ9.eyJpc3MiOiI1ODBmOWY1NjYzZjM5MDAwOTM2ZTA3ZmUiLCJleHAiOm51bGx9.8nW7NQwr066mjDZ-UjRXuLpeWBf8y9Vt5G7CoxMchoA,44,41,Fort Bend,RM481570350,1.21,OUT,4304,2007,2635,2,,,,,,,,,
583cb9458feec,RMIatTXwithRMS,2802 Aliso Shadow,Houston,TX,77089,2802 ALISO SHADOW CT,HOUSTON,TX,77089,-95.255324,29.58164,eyJ0eXAiOiJKV1QiLCJhbGciOiJIUzI1NiJ9.eyJpc3MiOiI1ODBmOWY1NjYzZjM5MDAwOTM2ZTA3ZmUiLCJleHAiOm51bGx9.8nW7NQwr066mjDZ-UjRXuLpeWBf8y9Vt5G7CoxMchoA,14.4,14.4,Harris,RM482010580,1.66,OUT,1063,2013,3365,4,,,,,,,,,
583cb819e993d,RMIatTXwithRMS,12806 Highland Hills Dr,Cypress,TX,77429,12806 HIGHLAND HILLS DR,CYPRESS,TX,77429,-95.608159,29.99886,eyJ0eXAiOiJKV1QiLCJhbGciOiJIUzI1NiJ9.eyJpc3MiOiI1ODBmOWY1NjYzZjM5MDAwOTM2ZTA3ZmUiLCJleHAiOm51bGx9.8nW7NQwr066mjDZ-UjRXuLpeWBf8y9Vt5G7CoxMchoA,44,37,Harris,RM482010560,1.09,OUT,8947,1980,2649,3,1,1,,,,,,,
583cb7d63d2d9,RMIatTXwithRMS,209 W HOMAN ST,BAYTOWN,TX,77520,209 W HOMAN ST,BAYTOWN,TX,77520,-94.967722,29.744768,eyJ0eXAiOiJKV1QiLCJhbGciOiJIUzI1NiJ9.eyJpc3MiOiI1ODBmOWY1NjYzZjM5MDAwOTM2ZTA3ZmUiLCJleHAiOm51bGx9.8nW7NQwr066mjDZ-UjRXuLpeWBf8y9Vt5G7CoxMchoA,4.5,2.6,Harris,RM482010050,1.21,OUT,6592,1943,1152,2,,,,,,,,,
583cb707e82aa,RMIatTXwithRMS,2810 Joshua Tree Lane,Manvel,TX,77578,2810 JOSHUA TREE LN,MANVEL,TX,77578,-95.378223,29.522582,eyJ0eXAiOiJKV1QiLCJhbGciOiJIUzI1NiJ9.eyJpc3MiOiI1ODBmOWY1NjYzZjM5MDAwOTM2ZTA3ZmUiLCJleHAiOm51bGx9.8nW7NQwr066mjDZ-UjRXuLpeWBf8y9Vt5G7CoxMchoA,21.8,21.8,Brazoria,RM480390500,3.33,,1975,2011,4653,,,,,,,,,,
583cb6b251127,RMIatTXwithRMS,406 Stone Gate Dr,Mission,TX,78574,406 STONEGATE DR,MISSION,TX,78574,-98.317606,26.240858,eyJ0eXAiOiJKV1QiLCJhbGciOiJIUzI1NiJ9.eyJpc3MiOiI1ODBmOWY1NjYzZjM5MDAwOTM2ZTA3ZmUiLCJleHAiOm51bGx9.8nW7NQwr066mjDZ-UjRXuLpeWBf8y9Vt5G7CoxMchoA,55,55,Hidalgo,RM482150120,2.21,OUT,2910,2003,1828,2,,,,,,,,,
583cb69dac919,RMIatTXwithRMS,11427 quincewood,houston,TX,77089,11427 QUINCEWOOD DR,HOUSTON,TX,77089,-95.2117,29.594189,eyJ0eXAiOiJKV1QiLCJhbGciOiJIUzI1NiJ9.eyJpc3MiOiI1ODBmOWY1NjYzZjM5MDAwOTM2ZTA3ZmUiLCJleHAiOm51bGx9.8nW7NQwr066mjDZ-UjRXuLpeWBf8y9Vt5G7CoxMchoA,11.9,11.9,Harris,RM482010700,1.58,OUT,7827,1979,1708,2,,,,,,,,,
583cb63aa85b6,RMIatTXwithRMS,7919 Burning Oak Ln,RICHMOND,TX,77407,7919 BURNING OAK LN,RICHMOND,TX,77407,-95.68945,29.691285,eyJ0eXAiOiJKV1QiLCJhbGciOiJIUzI1NiJ9.eyJpc3MiOiI1ODBmOWY1NjYzZjM5MDAwOTM2ZTA3ZmUiLCJleHAiOm51bGx9.8nW7NQwr066mjDZ-UjRXuLpeWBf8y9Vt5G7CoxMchoA,41,38,Fort Bend,RM481570350,2.16,OUT,3352,2006,1940,2,,,,,,,,,
583cb6142f05c,RMIatTXwithRMS,12002 Monticeto Lane,Houston,TX,77477,12002 MONTICETO LN,MEADOWS PLACE,TX,77477,-95.588516,29.655799,eyJ0eXAiOiJKV1QiLCJhbGciOiJIUzI1NiJ9.eyJpc3MiOiI1ODBmOWY1NjYzZjM5MDAwOTM2ZTA3ZmUiLCJleHAiOm51bGx9.8nW7NQwr066mjDZ-UjRXuLpeWBf8y9Vt5G7CoxMchoA,35,32,Fort Bend,RM481570060,0.92,OUT,17466,1974,2295,2,,,,,,,,,
583cb5eb6972a,RMIatTXwithRMS,20607 E Sand Hill Dr,Galveston,TX,77554,20607 E SAND HILL DR,GALVESTON,TX,77554,-95.023689,29.151175,eyJ0eXAiOiJKV1QiLCJhbGciOiJIUzI1NiJ9.eyJpc3MiOiI1ODBmOWY1NjYzZjM5MDAwOTM2ZTA3ZmUiLCJleHAiOm51bGx9.8nW7NQwr066mjDZ-UjRXuLpeWBf8y9Vt5G7CoxMchoA,0.09,0.09,Galveston,RM481671260,1.69,,1111,2001,3650,3,,,,,,,,,
583cb4f05ef41,RMIatTXwithRMS,4986 Valkeith Dr,Houston,TX,77096,4986 VALKEITH DR,HOUSTON,TX,77096,-95.466273,29.674641,eyJ0eXAiOiJKV1QiLCJhbGciOiJIUzI1NiJ9.eyJpc3MiOiI1ODBmOWY1NjYzZjM5MDAwOTM2ZTA3ZmUiLCJleHAiOm51bGx9.8nW7NQwr066mjDZ-UjRXuLpeWBf8y9Vt5G7CoxMchoA,28,24.5,Harris,RM482010310,2.02,OUT,12290,1959,3343,3,1,1,,,,,,,
583cb436bfd85,RMIatTXwithRMS,20607 east sandhill drive,galveston,TX,77554,20607 E SAND HILL DR,GALVESTON,TX,77554,-95.023689,29.151175,eyJ0eXAiOiJKV1QiLCJhbGciOiJIUzI1NiJ9.eyJpc3MiOiI1ODBmOWY1NjYzZjM5MDAwOTM2ZTA3ZmUiLCJleHAiOm51bGx9.8nW7NQwr066mjDZ-UjRXuLpeWBf8y9Vt5G7CoxMchoA,0.09,0.09,Galveston,RM481671260,1.69,,1111,2001,3650,3,,,,,,,,,
583cb3db6803f,RMIatTXwithRMS,3607 Monarch Grove Ln,Katy,TX,77494,3607 MONARCH GROVE LN,KATY,TX,77494,-95.833573,29.729912,eyJ0eXAiOiJKV1QiLCJhbGciOiJIUzI1NiJ9.eyJpc3MiOiI1ODBmOWY1NjYzZjM5MDAwOTM2ZTA3ZmUiLCJleHAiOm51bGx9.8nW7NQwr066mjDZ-UjRXuLpeWBf8y9Vt5G7CoxMchoA,50,46,Fort Bend,RM481570220,2.34,OUT,12783,2010,3434,3,,,,,,,,,
583cb3cf24d73,RMIatTXwithRMS,12923 Mason Terrace Ln,Cypress,TX,77433,12923 MASON TERRACE LN,CYPRESS,TX,77433,-95.71207,29.967209,eyJ0eXAiOiJKV1QiLCJhbGciOiJIUzI1NiJ9.eyJpc3MiOiI1ODBmOWY1NjYzZjM5MDAwOTM2ZTA3ZmUiLCJleHAiOm51bGx9.8nW7NQwr066mjDZ-UjRXuLpeWBf8y9Vt5G7CoxMchoA,48,42,Harris,RM482010140,3.28,OUT,2352,2006,2697,3,1,1,,,,,,,
583cb1eed0992,RMIatTXwithRMS,2109 BRIARGLEN DR,HOUSTON,TX,77027,2109 BRIARGLEN DR,HOUSTON,TX,77027,-95.450372,29.74559,eyJ0eXAiOiJKV1QiLCJhbGciOiJIUzI1NiJ9.eyJpc3MiOiI1ODBmOWY1NjYzZjM5MDAwOTM2ZTA3ZmUiLCJleHAiOm51bGx9.8nW7NQwr066mjDZ-UjRXuLpeWBf8y9Vt5G7CoxMchoA,28,23,Harris,RM482010310,1.27,OUT,32842,1998,2876,4,1,1,,,,,,,
583cb1d38440b,RMIatTXwithRMS,7427 BREIFWAY ST,HOUSTON,TX,77087,7427 BRIEFWAY ST,HOUSTON,TX,77087,-95.294841,29.692272,eyJ0eXAiOiJKV1QiLCJhbGciOiJIUzI1NiJ9.eyJpc3MiOiI1ODBmOWY1NjYzZjM5MDAwOTM2ZTA3ZmUiLCJleHAiOm51bGx9.8nW7NQwr066mjDZ-UjRXuLpeWBf8y9Vt5G7CoxMchoA,17.3,14.1,Harris,RM482010310,1.42,OUT,27043,1951,1500,1,,,,,,,,,
583cb1a2b8c5b,RMIatTXwithRMS,3330 Shore Side Dr,Crosby,TX,77532,3330 SHORE SIDE DR,CROSBY,TX,77532,-95.139363,29.944353,eyJ0eXAiOiJKV1QiLCJhbGciOiJIUzI1NiJ9.eyJpc3MiOiI1ODBmOWY1NjYzZjM5MDAwOTM2ZTA3ZmUiLCJleHAiOm51bGx9.8nW7NQwr066mjDZ-UjRXuLpeWBf8y9Vt5G7CoxMchoA,20.6,14.7,Harris,RM482010130,1.30,OUT,1757,1999,2570,2,,,,,,,,,
583cb174e3789,RMIatTXwithRMS,2705 W Mile 5 Rd,Mission,TX,78574,2705 W MILE 5 RD,MISSION,TX,78574,-98.35084,26.290312,eyJ0eXAiOiJKV1QiLCJhbGciOiJIUzI1NiJ9.eyJpc3MiOiI1ODBmOWY1NjYzZjM5MDAwOTM2ZTA3ZmUiLCJleHAiOm51bGx9.8nW7NQwr066mjDZ-UjRXuLpeWBf8y9Vt5G7CoxMchoA,56,56,Hidalgo,RM482150583,2.42,OUT,1768,1989,2007,,,,,,,,,,
583cb172bf2bf,RMIatTXwithRMS,5910 Echo Lake Lane,Houston,TX,77069,5910 ECHO LAKE LN,HOUSTON,TX,77069,-95.526887,29.9878,eyJ0eXAiOiJKV1QiLCJhbGciOiJIUzI1NiJ9.eyJpc3MiOiI1ODBmOWY1NjYzZjM5MDAwOTM2ZTA3ZmUiLCJleHAiOm51bGx9.8nW7NQwr066mjDZ-UjRXuLpeWBf8y9Vt5G7CoxMchoA,39,33,Harris,RM482010090,1.55,OUT,19121,1965,3559,3,1,1,,,,,,,
583cb0f7bd2f4,RMIatTXwithRMS,9423 Val Verde,Houston,TX,77063,9423 VAL VERDE ST,HOUSTON,TX,77063,-95.531276,29.735662,eyJ0eXAiOiJKV1QiLCJhbGciOiJIUzI1NiJ9.eyJpc3MiOiI1ODBmOWY1NjYzZjM5MDAwOTM2ZTA3ZmUiLCJleHAiOm51bGx9.8nW7NQwr066mjDZ-UjRXuLpeWBf8y9Vt5G7CoxMchoA,32,28,Harris,RM482010310,0.79,OUT,27064,1961,1568,2,,,,,,,,,
583cb083e6cf9,RMIatTXwithRMS,2607 W PEBBLE BEACH DR,MISSOURI CITY,TX,77459,2607 W PEBBLE BEACH DR,MISSOURI CITY,TX,77459,-95.552807,29.581476,eyJ0eXAiOiJKV1QiLCJhbGciOiJIUzI1NiJ9.eyJpc3MiOiI1ODBmOWY1NjYzZjM5MDAwOTM2ZTA3ZmUiLCJleHAiOm51bGx9.8nW7NQwr066mjDZ-UjRXuLpeWBf8y9Vt5G7CoxMchoA,33,32,Fort Bend,RM481570360,0.94,OUT,11886,1972,2542,2,,,,,,,,,
583cb01ce277c,RMIatTXwithRMS,19107 high meadow lane,tomball,TX,77377,19107 HIGH MEADOW LN,TOMBALL,TX,77377,-95.72252,30.045251,eyJ0eXAiOiJKV1QiLCJhbGciOiJIUzI1NiJ9.eyJpc3MiOiI1ODBmOWY1NjYzZjM5MDAwOTM2ZTA3ZmUiLCJleHAiOm51bGx9.8nW7NQwr066mjDZ-UjRXuLpeWBf8y9Vt5G7CoxMchoA,51,45,Harris,RM482010630,4.24,OUT,1809,1992,3593,4,1,1,,,,,,,
583caf5523483,RMIatTXwithRMS,2727 Dedman St,Pasadena,TX,77503,2727 DEDMAN ST,PASADENA,TX,77503,-95.149447,29.671008,eyJ0eXAiOiJKV1QiLCJhbGciOiJIUzI1NiJ9.eyJpc3MiOiI1ODBmOWY1NjYzZjM5MDAwOTM2ZTA3ZmUiLCJleHAiOm51bGx9.8nW7NQwr066mjDZ-UjRXuLpeWBf8y9Vt5G7CoxMchoA,8.4,6.1,Harris,RM482010570,1.45,OUT,12138,1948,714,1,,,,,,,,,
583caf3ad740a,RMIatTXwithRMS,10619 COBBLECREEK WAY,MISSOURI CITY,TX,77459,10619 COBBLECREEK WAY,MISSOURI CITY,TX,77459,-95.505536,29.503742,eyJ0eXAiOiJKV1QiLCJhbGciOiJIUzI1NiJ9.eyJpc3MiOiI1ODBmOWY1NjYzZjM5MDAwOTM2ZTA3ZmUiLCJleHAiOm51bGx9.8nW7NQwr066mjDZ-UjRXuLpeWBf8y9Vt5G7CoxMchoA,30,28,Fort Bend,RM481570370,2.52,OUT,2249,2004,2072,2,,,,,,,,,
583caf1a04c63,RMIatTXwithRMS,4007 EDGEBROOK DR,BAYTOWN,TX,77521,4007 EDGEBROOK DR,BAYTOWN,TX,77521,-94.974212,29.766225,eyJ0eXAiOiJKV1QiLCJhbGciOiJIUzI1NiJ9.eyJpc3MiOiI1ODBmOWY1NjYzZjM5MDAwOTM2ZTA3ZmUiLCJleHAiOm51bGx9.8nW7NQwr066mjDZ-UjRXuLpeWBf8y9Vt5G7CoxMchoA,6,3.7,Harris,RM482010050,0.92,OUT,6952,1984,2212,2,,,,,,,,,
583cae18b1dbb,RMIatTXwithRMS,17922 Camden Oaks Lane,Richmond,TX,77407,17922 CAMDEN OAKS LN,RICHMOND,TX,77407,-95.697947,29.702133,eyJ0eXAiOiJKV1QiLCJhbGciOiJIUzI1NiJ9.eyJpc3MiOiI1ODBmOWY1NjYzZjM5MDAwOTM2ZTA3ZmUiLCJleHAiOm51bGx9.8nW7NQwr066mjDZ-UjRXuLpeWBf8y9Vt5G7CoxMchoA,42,39,Fort Bend,RM481570350,1.99,OUT,1282,1997,2213,2,,,,,,,,,
583cacea1b62b,RMIatTXwithRMS,303 W Gaywood Dr,Houston,TX,77079,303 W GAYWOOD DR,HOUSTON,TX,77079,-95.573206,29.766045,eyJ0eXAiOiJKV1QiLCJhbGciOiJIUzI1NiJ9.eyJpc3MiOiI1ODBmOWY1NjYzZjM5MDAwOTM2ZTA3ZmUiLCJleHAiOm51bGx9.8nW7NQwr066mjDZ-UjRXuLpeWBf8y9Vt5G7CoxMchoA,35,31,Harris,RM482010310,0.91,OUT,10182,1964,4290,3,,,,,,,,,
583cab5bcb222,RMIatTXwithRMS,7002 Oakwood Glen Cir,Spring,TX,77379,7002 OAKWOOD GLEN CIR,SPRING,TX,77379,-95.52601,30.032269,eyJ0eXAiOiJKV1QiLCJhbGciOiJIUzI1NiJ9.eyJpc3MiOiI1ODBmOWY1NjYzZjM5MDAwOTM2ZTA3ZmUiLCJleHAiOm51bGx9.8nW7NQwr066mjDZ-UjRXuLpeWBf8y9Vt5G7CoxMchoA,41,35,Harris,RM482010410,1.26,OUT,2904,1979,1808,2,,,,,,,,,
583cab397a93d,RMIatTXwithRMS,,,,,,,,,,,eyJ0eXAiOiJKV1QiLCJhbGciOiJIUzI1NiJ9.eyJpc3MiOiI1ODBmOWY1NjYzZjM5MDAwOTM2ZTA3ZmUiLCJleHAiOm51bGx9.8nW7NQwr066mjDZ-UjRXuLpeWBf8y9Vt5G7CoxMchoA,,,,,,,,,,,,,3413 Cowboy Nation Ct,Corpus Cristi,TX,78414,0,0,False
583cab3729412,RMIatTXwithRMS,1442 ELIAS PEAK CT,HOUSTON,TX,77073,1442 ELIAS PEAK CT,HOUSTON,TX,77073,-95.406257,30.010474,eyJ0eXAiOiJKV1QiLCJhbGciOiJIUzI1NiJ9.eyJpc3MiOiI1ODBmOWY1NjYzZjM5MDAwOTM2ZTA3ZmUiLCJleHAiOm51bGx9.8nW7NQwr066mjDZ-UjRXuLpeWBf8y9Vt5G7CoxMchoA,35,28,Harris,RM482010010,1.15,OUT,8781,2009,1438,2,,,,,,,,,
583cab18e9765,RMIatTXwithRMS,3807 Crystal Falls Dr,Missouri City,TX,77459,3807 CRYSTAL FALLS DR,MISSOURI CITY,TX,77459,-95.546807,29.563807,eyJ0eXAiOiJKV1QiLCJhbGciOiJIUzI1NiJ9.eyJpc3MiOiI1ODBmOWY1NjYzZjM5MDAwOTM2ZTA3ZmUiLCJleHAiOm51bGx9.8nW7NQwr066mjDZ-UjRXuLpeWBf8y9Vt5G7CoxMchoA,32,32,Fort Bend,RM481570360,2.59,OUT,8669,1984,1947,2,,,,,,,,,
583caa4d4b680,RMIatTXwithRMS,138 Aguila Drive,Brownsville,TX,78521,138 AGUILA DR,BROWNSVILLE,TX,78521,-97.450257,25.906647,eyJ0eXAiOiJKV1QiLCJhbGciOiJIUzI1NiJ9.eyJpc3MiOiI1ODBmOWY1NjYzZjM5MDAwOTM2ZTA3ZmUiLCJleHAiOm51bGx9.8nW7NQwr066mjDZ-UjRXuLpeWBf8y9Vt5G7CoxMchoA,13.8,11.7,Cameron,RM480610800,1.81,,7194,,,,,,,,,,,,
583caa0d7abee,RMIatTXwithRMS,4911 Oxbow Cir W,Fulshear,TX,77441,4911 OXBOW CIR W,FULSHEAR,TX,77441,-95.933509,29.672145,eyJ0eXAiOiJKV1QiLCJhbGciOiJIUzI1NiJ9.eyJpc3MiOiI1ODBmOWY1NjYzZjM5MDAwOTM2ZTA3ZmUiLCJleHAiOm51bGx9.8nW7NQwr066mjDZ-UjRXuLpeWBf8y9Vt5G7CoxMchoA,56,53,Fort Bend,RM481570300,3.02,OUT,3608,2006,4126,3,,,,,,,,,
583caa027251f,RMIatTXwithRMS,1226 burning tree rd,kingwood,TX,77339,1226 BURNING TREE RD,KINGWOOD,TX,77339,-95.24485,30.034788,eyJ0eXAiOiJKV1QiLCJhbGciOiJIUzI1NiJ9.eyJpc3MiOiI1ODBmOWY1NjYzZjM5MDAwOTM2ZTA3ZmUiLCJleHAiOm51bGx9.8nW7NQwr066mjDZ-UjRXuLpeWBf8y9Vt5G7CoxMchoA,30,23,Harris,RM482010310,0.80,OUT,1504,1979,1694,2,,,,,,,,,
583ca95471ba7,RMIatTXwithRMS,2334 WHISPERING PINES ST,NEW CANEY,TX,77357,2334 WHISPERING PINES ST,NEW CANEY,TX,77357,-95.165246,30.17787,eyJ0eXAiOiJKV1QiLCJhbGciOiJIUzI1NiJ9.eyJpc3MiOiI1ODBmOWY1NjYzZjM5MDAwOTM2ZTA3ZmUiLCJleHAiOm51bGx9.8nW7NQwr066mjDZ-UjRXuLpeWBf8y9Vt5G7CoxMchoA,37,31,Montgomery,RM483390030,2.19,OUT,1554,1975,2102,2,,,,,,,,,
583ca94a0dff5,RMIatTXwithRMS,,,,,,,,,,,eyJ0eXAiOiJKV1QiLCJhbGciOiJIUzI1NiJ9.eyJpc3MiOiI1ODBmOWY1NjYzZjM5MDAwOTM2ZTA3ZmUiLCJleHAiOm51bGx9.8nW7NQwr066mjDZ-UjRXuLpeWBf8y9Vt5G7CoxMchoA,,,,,,,,,,,,,3413 COWBOY NATION,CORPUS CHRISTI,TX,78414,0,0,False
583ca8b8e9c82,RMIatTXwithRMS,3908 w hackberry,mcallen,TX,78501,3908 W HACKBERRY AVE,MCALLEN,TX,78501,-98.263342,26.215185,eyJ0eXAiOiJKV1QiLCJhbGciOiJIUzI1NiJ9.eyJpc3MiOiI1ODBmOWY1NjYzZjM5MDAwOTM2ZTA3ZmUiLCJleHAiOm51bGx9.8nW7NQwr066mjDZ-UjRXuLpeWBf8y9Vt5G7CoxMchoA,52,52,Hidalgo,RM482150100,1.72,OUT,9639,1997,1525,2,,,,,,,,,
583ca7dd5c7e9,RMIatTXwithRMS,2911 N 42nd Ln,Mcallen,TX,78501,2911 N 42ND LN,MCALLEN,TX,78501,-98.264116,26.23548,eyJ0eXAiOiJKV1QiLCJhbGciOiJIUzI1NiJ9.eyJpc3MiOiI1ODBmOWY1NjYzZjM5MDAwOTM2ZTA3ZmUiLCJleHAiOm51bGx9.8nW7NQwr066mjDZ-UjRXuLpeWBf8y9Vt5G7CoxMchoA,52,52,Hidalgo,RM482150100,2.37,OUT,2428,2003,2612,3,,,,,,,,,
583ca6c1f1317,RMIatTXwithRMS,7631 Rosewood Dr,Lumberton,TX,77657,7631 ROSEWOOD DR,LUMBERTON,TX,77657,-94.202046,30.249464,eyJ0eXAiOiJKV1QiLCJhbGciOiJIUzI1NiJ9.eyJpc3MiOiI1ODBmOWY1NjYzZjM5MDAwOTM2ZTA3ZmUiLCJleHAiOm51bGx9.8nW7NQwr066mjDZ-UjRXuLpeWBf8y9Vt5G7CoxMchoA,41,28,Hardin,RM481991510,1.34,OUT,2483,1994,1929,,,,,,,,,,
583ca68854357,RMIatTXwithRMS,11703 Pedernales Falls Ln,Sugar Land,TX,77498,11703 PEDERNALES FALLS LN,SUGAR LAND,TX,77498,-95.657765,29.644745,eyJ0eXAiOiJKV1QiLCJhbGciOiJIUzI1NiJ9.eyJpc3MiOiI1ODBmOWY1NjYzZjM5MDAwOTM2ZTA3ZmUiLCJleHAiOm51bGx9.8nW7NQwr066mjDZ-UjRXuLpeWBf8y9Vt5G7CoxMchoA,39,37,Fort Bend,RM481570250,2.44,OUT,2528,2000,2116,2,,,,,,,,,
583ca6644ebce,RMIatTXwithRMS,1134 Woodbridge Ave,Pearland,TX,77584,1134 WOODBRIDGE AVE,PEARLAND,TX,77584,-95.377863,29.571564,eyJ0eXAiOiJKV1QiLCJhbGciOiJIUzI1NiJ9.eyJpc3MiOiI1ODBmOWY1NjYzZjM5MDAwOTM2ZTA3ZmUiLCJleHAiOm51bGx9.8nW7NQwr066mjDZ-UjRXuLpeWBf8y9Vt5G7CoxMchoA,21.7,21.6,Brazoria,RM480390530,2.41,,7542,1983,1305,2,,,,,,,,,
583ca5928931d,RMIatTXwithRMS,1718 TEAL RUN PLACE DR,FRESNO,TX,77545,1718 TEAL RUN PLACE DR,FRESNO,TX,77545,-95.479844,29.529204,eyJ0eXAiOiJKV1QiLCJhbGciOiJIUzI1NiJ9.eyJpc3MiOiI1ODBmOWY1NjYzZjM5MDAwOTM2ZTA3ZmUiLCJleHAiOm51bGx9.8nW7NQwr066mjDZ-UjRXuLpeWBf8y9Vt5G7CoxMchoA,28,28,Fort Bend,RM481570160,2.15,OUT,5242,2001,2111,2,,,,,,,,,
583ca5247c58d,RMIatTXwithRMS,5917 Fite Rd,Pearland,TX,77584,5917 FITE RD,PEARLAND,TX,77584,-95.311916,29.552679,eyJ0eXAiOiJKV1QiLCJhbGciOiJIUzI1NiJ9.eyJpc3MiOiI1ODBmOWY1NjYzZjM5MDAwOTM2ZTA3ZmUiLCJleHAiOm51bGx9.8nW7NQwr066mjDZ-UjRXuLpeWBf8y9Vt5G7CoxMchoA,17.5,17.5,Brazoria,RM480390530,1.15,,4959,2000,2585,3,1,1,,,,,,,
583ca441f2e6f,RMIatTXwithRMS,9319 Meadow Ford Ct,Humble,TX,77396,9319 MEADOW FORD CT,HUMBLE,TX,77396,-95.254388,29.9374,eyJ0eXAiOiJKV1QiLCJhbGciOiJIUzI1NiJ9.eyJpc3MiOiI1ODBmOWY1NjYzZjM5MDAwOTM2ZTA3ZmUiLCJleHAiOm51bGx9.8nW7NQwr066mjDZ-UjRXuLpeWBf8y9Vt5G7CoxMchoA,24.2,17.7,Harris,RM482010180,3.89,OUT,5201,2006,2280,3,1,1,,,,,,,
583ca38ec9edb,RMIatTXwithRMS,655 BELVEDERE DR,BEAUMONT,TX,77706,655 BELVEDERE DR,BEAUMONT,TX,77706,-94.162548,30.08679,eyJ0eXAiOiJKV1QiLCJhbGciOiJIUzI1NiJ9.eyJpc3MiOiI1ODBmOWY1NjYzZjM5MDAwOTM2ZTA3ZmUiLCJleHAiOm51bGx9.8nW7NQwr066mjDZ-UjRXuLpeWBf8y9Vt5G7CoxMchoA,30,19.2,Jefferson,RM482450010,1.30,,9907,1988,3073,,,,,,,,,,
583ca2976fc11,RMIatTXwithRMS,4426 Trailwood Dr,Sugar Land,TX,77479,4426 TRAILWOOD DR,SUGAR LAND,TX,77479,-95.69074,29.595269,eyJ0eXAiOiJKV1QiLCJhbGciOiJIUzI1NiJ9.eyJpc3MiOiI1ODBmOWY1NjYzZjM5MDAwOTM2ZTA3ZmUiLCJleHAiOm51bGx9.8nW7NQwr066mjDZ-UjRXuLpeWBf8y9Vt5G7CoxMchoA,41,39,Fort Bend,RM481570260,2.90,OUT,2761,1994,2505,2,,,,,,,,,
583ca27bce5b3,RMIatTXwithRMS,4403 Grapevine St,Houston,TX,77045,4403 GRAPEVINE ST,HOUSTON,TX,77045,-95.442567,29.615776,eyJ0eXAiOiJKV1QiLCJhbGciOiJIUzI1NiJ9.eyJpc3MiOiI1ODBmOWY1NjYzZjM5MDAwOTM2ZTA3ZmUiLCJleHAiOm51bGx9.8nW7NQwr066mjDZ-UjRXuLpeWBf8y9Vt5G7CoxMchoA,26,24,Harris,RM482010310,2.33,OUT,10645,1959,1616,2,,,,,,,,,
583ca2271ba61,RMIatTXwithRMS,106 AMY DRIVE,SAN JUAN,TX,78589,106 AMY DR,SAN JUAN,TX,78589,-98.151849,26.202623,eyJ0eXAiOiJKV1QiLCJhbGciOiJIUzI1NiJ9.eyJpc3MiOiI1ODBmOWY1NjYzZjM5MDAwOTM2ZTA3ZmUiLCJleHAiOm51bGx9.8nW7NQwr066mjDZ-UjRXuLpeWBf8y9Vt5G7CoxMchoA,46,46,Hidalgo,RM482150190,1.18,OUT,11086,1993,2040,2,,,,,,,,,
583ca1dd7f91c,RMIatTXwithRMS,16507 Eaglewood Shadows Drive,Sugar Land,TX,77478,16507 EAGLEWOOD SHADOWS DR,SUGAR LAND,TX,77498,-95.670643,29.675952,eyJ0eXAiOiJKV1QiLCJhbGciOiJIUzI1NiJ9.eyJpc3MiOiI1ODBmOWY1NjYzZjM5MDAwOTM2ZTA3ZmUiLCJleHAiOm51bGx9.8nW7NQwr066mjDZ-UjRXuLpeWBf8y9Vt5G7CoxMchoA,40,37,Fort Bend,RM481570250,2.07,OUT,915,2003,2439,2,,,,,,,,,
583ca19d47a3f,RMIatTXwithRMS,2830 Briarhurst pk,Houston,TX,77057,2830 BRIARHURST PARK,HOUSTON,TX,77057,-95.492455,29.735449,eyJ0eXAiOiJKV1QiLCJhbGciOiJIUzI1NiJ9.eyJpc3MiOiI1ODBmOWY1NjYzZjM5MDAwOTM2ZTA3ZmUiLCJleHAiOm51bGx9.8nW7NQwr066mjDZ-UjRXuLpeWBf8y9Vt5G7CoxMchoA,30,26,Harris,RM482010310,1.40,OUT,34577,2001,2743,4,1,1,,,,,,,
583ca0cf185ae,RMIatTXwithRMS,2231 Oak Rise Dr.,Conroe,TX,77304,2231 OAK RISE DR,CONROE,TX,77304,-95.488951,30.281064,eyJ0eXAiOiJKV1QiLCJhbGciOiJIUzI1NiJ9.eyJpc3MiOiI1ODBmOWY1NjYzZjM5MDAwOTM2ZTA3ZmUiLCJleHAiOm51bGx9.8nW7NQwr066mjDZ-UjRXuLpeWBf8y9Vt5G7CoxMchoA,52,46,Montgomery,RM483390330,2.50,OUT,826,2014,2366,3,1,1,,,,,,,
583ca038df76f,RMIatTXwithRMS,16310 N Trail Dr,Houston,TX,77073,16310 N TRAIL DR,HOUSTON,TX,77073,-95.419921,30.005023,eyJ0eXAiOiJKV1QiLCJhbGciOiJIUzI1NiJ9.eyJpc3MiOiI1ODBmOWY1NjYzZjM5MDAwOTM2ZTA3ZmUiLCJleHAiOm51bGx9.8nW7NQwr066mjDZ-UjRXuLpeWBf8y9Vt5G7CoxMchoA,35,29,Harris,RM482010610,1.04,OUT,9288,1982,1568,2,,,,,,,,,
583ca03594921,RMIatTXwithRMS,8414 Lone Maple Dr,Houston,TX,77083,8414 LONE MAPLE DR,HOUSTON,TX,77083,-95.66591,29.683986,eyJ0eXAiOiJKV1QiLCJhbGciOiJIUzI1NiJ9.eyJpc3MiOiI1ODBmOWY1NjYzZjM5MDAwOTM2ZTA3ZmUiLCJleHAiOm51bGx9.8nW7NQwr066mjDZ-UjRXuLpeWBf8y9Vt5G7CoxMchoA,40,37,Fort Bend,RM481570350,1.47,OUT,3981,1993,1997,2,,,,,,,,,
583ca027f3569,RMIatTXwithRMS,5907 Stevens Creek Ct,Richmond,TX,79496,5907 STEVENS CREEK CT,RICHMOND,TX,77469,-95.704028,29.549271,eyJ0eXAiOiJKV1QiLCJhbGciOiJIUzI1NiJ9.eyJpc3MiOiI1ODBmOWY1NjYzZjM5MDAwOTM2ZTA3ZmUiLCJleHAiOm51bGx9.8nW7NQwr066mjDZ-UjRXuLpeWBf8y9Vt5G7CoxMchoA,42,39,Fort Bend,RM481570310,0.91,OUT,7514,2000,2875,2,,,,,,,,,
583c9f50a67e5,RMIatTXwithRMS,510 Traynor Ln,Sugar Land,TX,77479,510 TRAYNOR LN,SUGAR LAND,TX,77479,-95.659793,29.600833,eyJ0eXAiOiJKV1QiLCJhbGciOiJIUzI1NiJ9.eyJpc3MiOiI1ODBmOWY1NjYzZjM5MDAwOTM2ZTA3ZmUiLCJleHAiOm51bGx9.8nW7NQwr066mjDZ-UjRXuLpeWBf8y9Vt5G7CoxMchoA,39,37,Fort Bend,RM481570130,0.77,OUT,2912,2009,3275,3,,,,,,,,,
583c9ece59762,RMIatTXwithRMS,13906 Sableridge Dr,Houston,TX,77014,13906 SABLERIDGE DR,HOUSTON,TX,77014,-95.482608,29.978924,eyJ0eXAiOiJKV1QiLCJhbGciOiJIUzI1NiJ9.eyJpc3MiOiI1ODBmOWY1NjYzZjM5MDAwOTM2ZTA3ZmUiLCJleHAiOm51bGx9.8nW7NQwr066mjDZ-UjRXuLpeWBf8y9Vt5G7CoxMchoA,37,30,Harris,RM482010460,1.45,OUT,25664,1998,2121,2,,,,,,,,,
583c9ecc09107,RMIatTXwithRMS,16610 GULL CT,CROSBY,TX,77532,16610 GULL CT,CROSBY,TX,77532,-95.074982,29.92296,eyJ0eXAiOiJKV1QiLCJhbGciOiJIUzI1NiJ9.eyJpc3MiOiI1ODBmOWY1NjYzZjM5MDAwOTM2ZTA3ZmUiLCJleHAiOm51bGx9.8nW7NQwr066mjDZ-UjRXuLpeWBf8y9Vt5G7CoxMchoA,17.7,12.3,Harris,RM482010130,0.99,OUT,2590,1982,11716,5,,,,,,,,,
583c9e97bc183,RMIatTXwithRMS,17703 Mos Point Dr,Spring,TX,77379,17703 MOSS POINT DR,SPRING,TX,77379,-95.494713,30.023908,eyJ0eXAiOiJKV1QiLCJhbGciOiJIUzI1NiJ9.eyJpc3MiOiI1ODBmOWY1NjYzZjM5MDAwOTM2ZTA3ZmUiLCJleHAiOm51bGx9.8nW7NQwr066mjDZ-UjRXuLpeWBf8y9Vt5G7CoxMchoA,39,33,Harris,RM482010410,1.42,OUT,9545,1982,2872,4,1,1,,,,,,,
583c9dd500d37,RMIatTXwithRMS,13906 Sableridge Dr.,Houston,TX,77014,13906 SABLERIDGE DR,HOUSTON,TX,77014,-95.482608,29.978924,eyJ0eXAiOiJKV1QiLCJhbGciOiJIUzI1NiJ9.eyJpc3MiOiI1ODBmOWY1NjYzZjM5MDAwOTM2ZTA3ZmUiLCJleHAiOm51bGx9.8nW7NQwr066mjDZ-UjRXuLpeWBf8y9Vt5G7CoxMchoA,37,30,Harris,RM482010460,1.45,OUT,25664,1998,2121,2,,,,,,,,,
583c9da47bb65,RMIatTXwithRMS,8206 Wallis ST,Fulshear,TX,77441,8206 WALLIS ST,FULSHEAR,TX,77441,-95.903011,29.693464,eyJ0eXAiOiJKV1QiLCJhbGciOiJIUzI1NiJ9.eyJpc3MiOiI1ODBmOWY1NjYzZjM5MDAwOTM2ZTA3ZmUiLCJleHAiOm51bGx9.8nW7NQwr066mjDZ-UjRXuLpeWBf8y9Vt5G7CoxMchoA,54,51,Fort Bend,RM481570300,0.11,OUT,522,1980,1995,2,,,,,,,,,
583c9d8f89f42,RMIatTXwithRMS,18318 Enchanted Rock Trl,Humble,TX,77346,18318 ENCHANTED ROCK TRL,HUMBLE,TX,77346,-95.189382,29.985686,eyJ0eXAiOiJKV1QiLCJhbGciOiJIUzI1NiJ9.eyJpc3MiOiI1ODBmOWY1NjYzZjM5MDAwOTM2ZTA3ZmUiLCJleHAiOm51bGx9.8nW7NQwr066mjDZ-UjRXuLpeWBf8y9Vt5G7CoxMchoA,24.4,18.6,Harris,RM482010030,1.38,OUT,5710,2005,4056,4,1,1,,,,,,,
583c9d57ab00c,RMIatTXwithRMS,18318 Enchanted Lock Trail,Humble,TX,77346,18318 ENCHANTED ROCK TRL,HUMBLE,TX,77346,-95.189382,29.985686,eyJ0eXAiOiJKV1QiLCJhbGciOiJIUzI1NiJ9.eyJpc3MiOiI1ODBmOWY1NjYzZjM5MDAwOTM2ZTA3ZmUiLCJleHAiOm51bGx9.8nW7NQwr066mjDZ-UjRXuLpeWBf8y9Vt5G7CoxMchoA,24.4,18.6,Harris,RM482010030,1.38,OUT,5710,2005,4056,4,1,1,,,,,,,
583c9d1f915bd,RMIatTXwithRMS,220 W Morningside Dr,South Padre Island,TX,78597,220 W MORNINGSIDE DR,SOUTH PADRE ISLAND,TX,78597,-97.17385,26.127018,eyJ0eXAiOiJKV1QiLCJhbGciOiJIUzI1NiJ9.eyJpc3MiOiI1ODBmOWY1NjYzZjM5MDAwOTM2ZTA3ZmUiLCJleHAiOm51bGx9.8nW7NQwr066mjDZ-UjRXuLpeWBf8y9Vt5G7CoxMchoA,0.48,0.03,Cameron,RM480611020,0.81,,4175,1994,2250,,,,,,,,,,
583c9bd80c20b,RMIatTXwithRMS,5306 Pinewilde,Houston,TX,77066,5306 PINEWILDE DR,HOUSTON,TX,77066,-95.499302,29.972522,eyJ0eXAiOiJKV1QiLCJhbGciOiJIUzI1NiJ9.eyJpc3MiOiI1ODBmOWY1NjYzZjM5MDAwOTM2ZTA3ZmUiLCJleHAiOm51bGx9.8nW7NQwr066mjDZ-UjRXuLpeWBf8y9Vt5G7CoxMchoA,37,31,Harris,RM482010090,1.18,OUT,26230,1977,2550,3,1,1,,,,,,,
583c9b902924e,RMIatTXwithRMS,2731 Golden Leaf Dr,Kingwood,TX,77339,2731 GOLDEN LEAF DR,KINGWOOD,TX,77339,-95.200334,30.068184,eyJ0eXAiOiJKV1QiLCJhbGciOiJIUzI1NiJ9.eyJpc3MiOiI1ODBmOWY1NjYzZjM5MDAwOTM2ZTA3ZmUiLCJleHAiOm51bGx9.8nW7NQwr066mjDZ-UjRXuLpeWBf8y9Vt5G7CoxMchoA,30,24.1,Harris,RM482010310,1.24,OUT,5259,1983,2420,3,1,1,,,,,,,
583c9b36b7fb8,RMIatTXwithRMS,7515 laguna lake dr,spring,TX,77379,Laguna Trail Dr,Houston,TX,77095,-95.6749267578125,29.9307994842529,eyJ0eXAiOiJKV1QiLCJhbGciOiJIUzI1NiJ9.eyJpc3MiOiI1ODBmOWY1NjYzZjM5MDAwOTM2ZTA3ZmUiLCJleHAiOm51bGx9.8nW7NQwr066mjDZ-UjRXuLpeWBf8y9Vt5G7CoxMchoA,45,39,Harris,RM482010310,3.77,OUT,5001,2001,4112,4,1,1,,,,,,,
583c9af25c02f,RMIatTXwithRMS,6007 WEST BELLFORT STREET,HOUSTON,TX,77035,6007 W BELLFORT ST,HOUSTON,TX,77035,-95.495368,29.656806,eyJ0eXAiOiJKV1QiLCJhbGciOiJIUzI1NiJ9.eyJpc3MiOiI1ODBmOWY1NjYzZjM5MDAwOTM2ZTA3ZmUiLCJleHAiOm51bGx9.8nW7NQwr066mjDZ-UjRXuLpeWBf8y9Vt5G7CoxMchoA,29,27,Harris,RM482010310,1.14,OUT,18075,1963,2218,2,,,,,,,,,
583c9aba1fe7f,RMIatTXwithRMS,21306 Kelliwood Greens Dr,Katy,TX,77450,21306 KELLIWOOD GREENS DR,KATY,TX,77450,-95.742041,29.72708,eyJ0eXAiOiJKV1QiLCJhbGciOiJIUzI1NiJ9.eyJpc3MiOiI1ODBmOWY1NjYzZjM5MDAwOTM2ZTA3ZmUiLCJleHAiOm51bGx9.8nW7NQwr066mjDZ-UjRXuLpeWBf8y9Vt5G7CoxMchoA,45,41,Fort Bend,RM481570350,2.49,OUT,1315,1993,4059,3,,,,,,,,,
583c9a8c0d4ae,RMIatTXwithRMS,4610 HARE ST,HOUSTON,TX,77020,4610 HARE ST,HOUSTON,TX,77020,-95.323607,29.76919,eyJ0eXAiOiJKV1QiLCJhbGciOiJIUzI1NiJ9.eyJpc3MiOiI1ODBmOWY1NjYzZjM5MDAwOTM2ZTA3ZmUiLCJleHAiOm51bGx9.8nW7NQwr066mjDZ-UjRXuLpeWBf8y9Vt5G7CoxMchoA,20.7,15.6,Harris,RM482010310,1.30,OUT,34847,1955,2868,3,,,,,,,,,
583c997b03896,RMIatTXwithRMS,1409 Terrace Drive,Mission,TX,78572,1409 TERRACE DR,MISSION,TX,78572,-98.302444,26.221983,eyJ0eXAiOiJKV1QiLCJhbGciOiJIUzI1NiJ9.eyJpc3MiOiI1ODBmOWY1NjYzZjM5MDAwOTM2ZTA3ZmUiLCJleHAiOm51bGx9.8nW7NQwr066mjDZ-UjRXuLpeWBf8y9Vt5G7CoxMchoA,54,54,Hidalgo,RM482150120,1.92,OUT,8237,2002,2501,3,,,,,,,,,
583c996f22ca4,RMIatTXwithRMS,9318 Windy Spring Ln,Houston,TX,77089,9318 WINDY SPRING LN,HOUSTON,TX,77089,-95.246774,29.581723,eyJ0eXAiOiJKV1QiLCJhbGciOiJIUzI1NiJ9.eyJpc3MiOiI1ODBmOWY1NjYzZjM5MDAwOTM2ZTA3ZmUiLCJleHAiOm51bGx9.8nW7NQwr066mjDZ-UjRXuLpeWBf8y9Vt5G7CoxMchoA,13.9,13.9,Harris,RM482010700,0.58,OUT,2785,2002,2157,3,1,1,,,,,,,
583c996961521,RMIatTXwithRMS,807 Stevens Creek Ln,Richmond,TX,77469,807 STEVENS CREEK LN,RICHMOND,TX,77469,-95.704459,29.54736,eyJ0eXAiOiJKV1QiLCJhbGciOiJIUzI1NiJ9.eyJpc3MiOiI1ODBmOWY1NjYzZjM5MDAwOTM2ZTA3ZmUiLCJleHAiOm51bGx9.8nW7NQwr066mjDZ-UjRXuLpeWBf8y9Vt5G7CoxMchoA,42,39,Fort Bend,RM481570310,1.03,OUT,7301,2004,3259,2,,,,,,,,,
583c992d7da4d,RMIatTXwithRMS,6320 Austinville Dr,Katy,TX,77449,6320 AUSTINVILLE DR,KATY,TX,77449,-95.690959,29.866192,eyJ0eXAiOiJKV1QiLCJhbGciOiJIUzI1NiJ9.eyJpc3MiOiI1ODBmOWY1NjYzZjM5MDAwOTM2ZTA3ZmUiLCJleHAiOm51bGx9.8nW7NQwr066mjDZ-UjRXuLpeWBf8y9Vt5G7CoxMchoA,44,39,Harris,RM482010140,1.74,OUT,15306,2010,1490,3,1,1,,,,,,,
583c9907637bb,RMIatTXwithRMS,5907 GENTLEWOOD LN,SUGAR LAND,TX,77479,5907 GENTLEWOOD LN,SUGAR LAND,TX,77479,-95.56775,29.538248,eyJ0eXAiOiJKV1QiLCJhbGciOiJIUzI1NiJ9.eyJpc3MiOiI1ODBmOWY1NjYzZjM5MDAwOTM2ZTA3ZmUiLCJleHAiOm51bGx9.8nW7NQwr066mjDZ-UjRXuLpeWBf8y9Vt5G7CoxMchoA,33,32,Fort Bend,RM481570370,3.18,OUT,2807,2013,3799,4,,,,,,,,,
583c990762d0b,RMIatTXwithRMS,3814 Robertson St,Houston,TX,77009,3814 ROBERTSON ST,HOUSTON,TX,77009,-95.356837,29.795385,eyJ0eXAiOiJKV1QiLCJhbGciOiJIUzI1NiJ9.eyJpc3MiOiI1ODBmOWY1NjYzZjM5MDAwOTM2ZTA3ZmUiLCJleHAiOm51bGx9.8nW7NQwr066mjDZ-UjRXuLpeWBf8y9Vt5G7CoxMchoA,23.2,17.8,Harris,RM482010310,0.30,OUT,32517,1950,1728,1,,,,,,,,,
583c986eed1bd,RMIatTXwithRMS,807 Stevens Creek lane,Richmond,TX,77469,807 STEVENS CREEK LN,RICHMOND,TX,77469,-95.704459,29.54736,eyJ0eXAiOiJKV1QiLCJhbGciOiJIUzI1NiJ9.eyJpc3MiOiI1ODBmOWY1NjYzZjM5MDAwOTM2ZTA3ZmUiLCJleHAiOm51bGx9.8nW7NQwr066mjDZ-UjRXuLpeWBf8y9Vt5G7CoxMchoA,42,39,Fort Bend,RM481570310,1.03,OUT,7301,2004,3259,2,,,,,,,,,
583c97db5eaa9,RMIatTXwithRMS,17066 Gleneagle Dr S,Conroe,TX,77385,17066 GLENEAGLE DR S,CONROE,TX,77385,-95.43389,30.203976,eyJ0eXAiOiJKV1QiLCJhbGciOiJIUzI1NiJ9.eyJpc3MiOiI1ODBmOWY1NjYzZjM5MDAwOTM2ZTA3ZmUiLCJleHAiOm51bGx9.8nW7NQwr066mjDZ-UjRXuLpeWBf8y9Vt5G7CoxMchoA,46,40,Montgomery,RM483392312,0.52,OUT,907,1970,1938,2,,,,,,,,,
583c9736c146d,RMIatTXwithRMS,3222 Longhorn Cir,Manvel,TX,77578,3222 LONGHORN CIR,MANVEL,TX,77578,-95.390035,29.531908,eyJ0eXAiOiJKV1QiLCJhbGciOiJIUzI1NiJ9.eyJpc3MiOiI1ODBmOWY1NjYzZjM5MDAwOTM2ZTA3ZmUiLCJleHAiOm51bGx9.8nW7NQwr066mjDZ-UjRXuLpeWBf8y9Vt5G7CoxMchoA,22.4,22.4,Brazoria,RM480390500,2.09,,511,2009,2813,4,1,1,,,,,,,
583c966f0ba16,RMIatTXwithRMS,17066 Gleneagle Dr,Conroe,TX,77385,17066 GLENEAGLE DR S,CONROE,TX,77385,-95.43389,30.203976,eyJ0eXAiOiJKV1QiLCJhbGciOiJIUzI1NiJ9.eyJpc3MiOiI1ODBmOWY1NjYzZjM5MDAwOTM2ZTA3ZmUiLCJleHAiOm51bGx9.8nW7NQwr066mjDZ-UjRXuLpeWBf8y9Vt5G7CoxMchoA,46,40,Montgomery,RM483392312,0.52,OUT,907,1970,1938,2,,,,,,,,,
583c95fa1cb6e,RMIatTXwithRMS,9718 Bladon Dr,Humble,TX,77396,9718 BLADON DR,HUMBLE,TX,77396,-95.244202,29.944078,eyJ0eXAiOiJKV1QiLCJhbGciOiJIUzI1NiJ9.eyJpc3MiOiI1ODBmOWY1NjYzZjM5MDAwOTM2ZTA3ZmUiLCJleHAiOm51bGx9.8nW7NQwr066mjDZ-UjRXuLpeWBf8y9Vt5G7CoxMchoA,24.2,17.7,Harris,RM482010180,3.93,OUT,3821,2010,2290,3,1,1,,,,,,,
583c958222188,RMIatTXwithRMS,24027 Via Privato Dr,Richmond,TX,77406,24027 VIA PRIVATO DR,RICHMOND,TX,77406,-95.792187,29.689824,eyJ0eXAiOiJKV1QiLCJhbGciOiJIUzI1NiJ9.eyJpc3MiOiI1ODBmOWY1NjYzZjM5MDAwOTM2ZTA3ZmUiLCJleHAiOm51bGx9.8nW7NQwr066mjDZ-UjRXuLpeWBf8y9Vt5G7CoxMchoA,48,44,Fort Bend,RM481570300,2.86,OUT,2709,2014,3352,3,,,,,,,,,
583c948fa5e92,RMIatTXwithRMS,,,,,,,,,,,eyJ0eXAiOiJKV1QiLCJhbGciOiJIUzI1NiJ9.eyJpc3MiOiI1ODBmOWY1NjYzZjM5MDAwOTM2ZTA3ZmUiLCJleHAiOm51bGx9.8nW7NQwr066mjDZ-UjRXuLpeWBf8y9Vt5G7CoxMchoA,,,,,,,,,,,,,13710 MIRAFLORES CT,RICHMOND,TX,77407,0,0,False
583c93e7a8531,RMIatTXwithRMS,6704 Colibri Circle,Borwnsville,TX,78521,6704 COLIBRI CIR,BROWNSVILLE,TX,78521,-97.421417,25.929972,eyJ0eXAiOiJKV1QiLCJhbGciOiJIUzI1NiJ9.eyJpc3MiOiI1ODBmOWY1NjYzZjM5MDAwOTM2ZTA3ZmUiLCJleHAiOm51bGx9.8nW7NQwr066mjDZ-UjRXuLpeWBf8y9Vt5G7CoxMchoA,11.5,9.3,Cameron,RM480610911,1.17,,5061,2009,2386,,,,,,,,,,
583c93df1aaba,RMIatTXwithRMS,518 GRANT ST,DEER PARK,TX,77536,518 GRANT ST,DEER PARK,TX,77536,-95.117616,29.672194,eyJ0eXAiOiJKV1QiLCJhbGciOiJIUzI1NiJ9.eyJpc3MiOiI1ODBmOWY1NjYzZjM5MDAwOTM2ZTA3ZmUiLCJleHAiOm51bGx9.8nW7NQwr066mjDZ-UjRXuLpeWBf8y9Vt5G7CoxMchoA,6.6,4.4,Harris,RM482010160,1.51,OUT,11370,1974,1610,2,,,,,,,,,
583c93c75c6db,RMIatTXwithRMS,,,,,,,,,,,eyJ0eXAiOiJKV1QiLCJhbGciOiJIUzI1NiJ9.eyJpc3MiOiI1ODBmOWY1NjYzZjM5MDAwOTM2ZTA3ZmUiLCJleHAiOm51bGx9.8nW7NQwr066mjDZ-UjRXuLpeWBf8y9Vt5G7CoxMchoA,,,,,,,,,,,,,13710 MIRAFLORES CT,RICHMOND,TX,77407,0,0,False
583c936dcfad2,RMIatTXwithRMS,,,,,,,,,,,eyJ0eXAiOiJKV1QiLCJhbGciOiJIUzI1NiJ9.eyJpc3MiOiI1ODBmOWY1NjYzZjM5MDAwOTM2ZTA3ZmUiLCJleHAiOm51bGx9.8nW7NQwr066mjDZ-UjRXuLpeWBf8y9Vt5G7CoxMchoA,,,,,,,,,,,,,13710 MIRAFLORES CT,RICHMOND,TX,77407,0,0,False
583c93170c7dc,RMIatTXwithRMS,,,,,,,,,,,eyJ0eXAiOiJKV1QiLCJhbGciOiJIUzI1NiJ9.eyJpc3MiOiI1ODBmOWY1NjYzZjM5MDAwOTM2ZTA3ZmUiLCJleHAiOm51bGx9.8nW7NQwr066mjDZ-UjRXuLpeWBf8y9Vt5G7CoxMchoA,,,,,,,,,,,,,13710 MIRAFLORES CT,RICHMOND,TX,77407,0,0,False
583c9307cb048,RMIatTXwithRMS,,,,,,,,,,,eyJ0eXAiOiJKV1QiLCJhbGciOiJIUzI1NiJ9.eyJpc3MiOiI1ODBmOWY1NjYzZjM5MDAwOTM2ZTA3ZmUiLCJleHAiOm51bGx9.8nW7NQwr066mjDZ-UjRXuLpeWBf8y9Vt5G7CoxMchoA,,,,,,,,,,,,,13710 MIRAFLORES CT,RICHMOND,TX,77407,0,0,False
583c92a141e5a,RMIatTXwithRMS,806 22nd St,Beaumont,TX,77706,806 22ND ST,BEAUMONT,TX,77706,-94.14201,30.088354,eyJ0eXAiOiJKV1QiLCJhbGciOiJIUzI1NiJ9.eyJpc3MiOiI1ODBmOWY1NjYzZjM5MDAwOTM2ZTA3ZmUiLCJleHAiOm51bGx9.8nW7NQwr066mjDZ-UjRXuLpeWBf8y9Vt5G7CoxMchoA,30,18.1,Jefferson,RM482450010,0.67,,11830,1962,3300,,,,,,,,,,
583c929a25c33,RMIatTXwithRMS,13419 KNIGHTSWAY DR,HOUSTON,TX,77083,13419 KNIGHTS WAY DR,HOUSTON,TX,77083,-95.620338,29.676438,eyJ0eXAiOiJKV1QiLCJhbGciOiJIUzI1NiJ9.eyJpc3MiOiI1ODBmOWY1NjYzZjM5MDAwOTM2ZTA3ZmUiLCJleHAiOm51bGx9.8nW7NQwr066mjDZ-UjRXuLpeWBf8y9Vt5G7CoxMchoA,37,34,Harris,RM482010110,1.04,OUT,14241,2002,1375,2,,,,,,,,,
583c923300c78,RMIatTXwithRMS,10506 Kirkgreen Dr,Houston,TX,77089,10506 KIRKGREEN DR,HOUSTON,TX,77089,-95.232312,29.598896,eyJ0eXAiOiJKV1QiLCJhbGciOiJIUzI1NiJ9.eyJpc3MiOiI1ODBmOWY1NjYzZjM5MDAwOTM2ZTA3ZmUiLCJleHAiOm51bGx9.8nW7NQwr066mjDZ-UjRXuLpeWBf8y9Vt5G7CoxMchoA,13.2,13,Harris,RM482010700,0.46,OUT,6973,1984,1435,2,,,,,,,,,
583c9200a899c,RMIatTXwithRMS,17007 THOMAS RIDGE,CYPRESS,TX,77433,17007 THOMAS RIDGE LN,CYPRESS,TX,77433,-95.750172,30.017375,eyJ0eXAiOiJKV1QiLCJhbGciOiJIUzI1NiJ9.eyJpc3MiOiI1ODBmOWY1NjYzZjM5MDAwOTM2ZTA3ZmUiLCJleHAiOm51bGx9.8nW7NQwr066mjDZ-UjRXuLpeWBf8y9Vt5G7CoxMchoA,52,46,Harris,RM482010140,2.25,OUT,5133,2013,3357,4,1,1,,,,,,,
583c91e09bb33,RMIatTXwithRMS,6803 Clemson Lane,Sugar Land,TX,77479,6803 CLEMSON LN,SUGAR LAND,TX,77479,-95.65942,29.603796,eyJ0eXAiOiJKV1QiLCJhbGciOiJIUzI1NiJ9.eyJpc3MiOiI1ODBmOWY1NjYzZjM5MDAwOTM2ZTA3ZmUiLCJleHAiOm51bGx9.8nW7NQwr066mjDZ-UjRXuLpeWBf8y9Vt5G7CoxMchoA,39,37,Fort Bend,RM481570130,0.95,OUT,1892,2010,3163,2,,,,,,,,,
583c9193e5700,RMIatTXwithRMS,14426 Spring Mountain Dr,Tomball,TX,77377,14426 SPRING MOUNTAIN DR,TOMBALL,TX,77377,-95.643165,30.097889,eyJ0eXAiOiJKV1QiLCJhbGciOiJIUzI1NiJ9.eyJpc3MiOiI1ODBmOWY1NjYzZjM5MDAwOTM2ZTA3ZmUiLCJleHAiOm51bGx9.8nW7NQwr066mjDZ-UjRXuLpeWBf8y9Vt5G7CoxMchoA,50,43,Harris,RM482010780,1.98,OUT,1636,2005,3519,3,1,1,,,,,,,
583c9181585c5,RMIatTXwithRMS,13419 Knights Way Dr,Houston,TX,77083,13419 KNIGHTS WAY DR,HOUSTON,TX,77083,-95.620338,29.676438,eyJ0eXAiOiJKV1QiLCJhbGciOiJIUzI1NiJ9.eyJpc3MiOiI1ODBmOWY1NjYzZjM5MDAwOTM2ZTA3ZmUiLCJleHAiOm51bGx9.8nW7NQwr066mjDZ-UjRXuLpeWBf8y9Vt5G7CoxMchoA,37,34,Harris,RM482010110,1.04,OUT,14241,2002,1375,2,,,,,,,,,
583c906242590,RMIatTXwithRMS,,,,,,,,,,,eyJ0eXAiOiJKV1QiLCJhbGciOiJIUzI1NiJ9.eyJpc3MiOiI1ODBmOWY1NjYzZjM5MDAwOTM2ZTA3ZmUiLCJleHAiOm51bGx9.8nW7NQwr066mjDZ-UjRXuLpeWBf8y9Vt5G7CoxMchoA,,,,,,,,,,,,,2200 Rindle CT,Brenham,TX,77833,0,0,False
583c8fd54d41b,RMIatTXwithRMS,3900 royal meadows,port author,TX,77642,3900 Royal Meadows St,Port Arthur,TX,77642,-93.9702460169792,29.9459946155548,eyJ0eXAiOiJKV1QiLCJhbGciOiJIUzI1NiJ9.eyJpc3MiOiI1ODBmOWY1NjYzZjM5MDAwOTM2ZTA3ZmUiLCJleHAiOm51bGx9.8nW7NQwr066mjDZ-UjRXuLpeWBf8y9Vt5G7CoxMchoA,18.3,5.4,Jefferson,RM482450160,0.52,,3535,,,,,,,,,,,,
583c8f300ae4d,RMIatTXwithRMS,17403 Moreton Ln,Spring,TX,77379,17403 MORETON LN,SPRING,TX,77379,-95.533165,30.026616,eyJ0eXAiOiJKV1QiLCJhbGciOiJIUzI1NiJ9.eyJpc3MiOiI1ODBmOWY1NjYzZjM5MDAwOTM2ZTA3ZmUiLCJleHAiOm51bGx9.8nW7NQwr066mjDZ-UjRXuLpeWBf8y9Vt5G7CoxMchoA,41,35,Harris,RM482010410,1.11,OUT,5175,1987,6359,5,1,1,,,,,,,
583c8f1c55f22,RMIatTXwithRMS,2001 NOTRE DAME DR,GLENN HEIGHTS,TX,75154,2001 NOTRE DAME DR,GLENN HEIGHTS,TX,75154,-96.863788,32.554074,eyJ0eXAiOiJKV1QiLCJhbGciOiJIUzI1NiJ9.eyJpc3MiOiI1ODBmOWY1NjYzZjM5MDAwOTM2ZTA3ZmUiLCJleHAiOm51bGx9.8nW7NQwr066mjDZ-UjRXuLpeWBf8y9Vt5G7CoxMchoA,120.0,120.0,Dallas,RM481131046,1.55,OUT,804,2001,2440,3,1,1,,,,,,,
583c8e4933307,RMIatTXwithRMS,2018 CRESTON DR,SPRING,TX,77386,2018 CRESTON DR,SPRING,TX,77386,-95.408946,30.131654,eyJ0eXAiOiJKV1QiLCJhbGciOiJIUzI1NiJ9.eyJpc3MiOiI1ODBmOWY1NjYzZjM5MDAwOTM2ZTA3ZmUiLCJleHAiOm51bGx9.8nW7NQwr066mjDZ-UjRXuLpeWBf8y9Vt5G7CoxMchoA,41,35,Montgomery,RM483390290,2.91,OUT,4032,1983,1475,3,1,1,,,,,,,
583c8e0280e4b,RMIatTXwithRMS,3918 Derbyhall,Houston,TX,77066,3918 DERBYHALL DR,HOUSTON,TX,77066,-95.48761,29.956788,eyJ0eXAiOiJKV1QiLCJhbGciOiJIUzI1NiJ9.eyJpc3MiOiI1ODBmOWY1NjYzZjM5MDAwOTM2ZTA3ZmUiLCJleHAiOm51bGx9.8nW7NQwr066mjDZ-UjRXuLpeWBf8y9Vt5G7CoxMchoA,36,30,Harris,RM482010150,1.46,OUT,32787,1982,1484,2,,,,,,,,,
583c8d8d9c3fd,RMIatTXwithRMS,26614 sooty tern,Katy,TX,77494,26614 SOOTY TERN,KATY,TX,77494-6881,-95.828009,29.742773,eyJ0eXAiOiJKV1QiLCJhbGciOiJIUzI1NiJ9.eyJpc3MiOiI1ODBmOWY1NjYzZjM5MDAwOTM2ZTA3ZmUiLCJleHAiOm51bGx9.8nW7NQwr066mjDZ-UjRXuLpeWBf8y9Vt5G7CoxMchoA,50,46,Fort Bend,RM481570220,2.33,OUT,10958,2014,4092,3,,,,,,,,,
583c8ceccc5e3,RMIatTXwithRMS,6635 Lindy Ln,Houston,TX,77023,6635 LINDY LN,HOUSTON,TX,77023,-95.311248,29.720709,eyJ0eXAiOiJKV1QiLCJhbGciOiJIUzI1NiJ9.eyJpc3MiOiI1ODBmOWY1NjYzZjM5MDAwOTM2ZTA3ZmUiLCJleHAiOm51bGx9.8nW7NQwr066mjDZ-UjRXuLpeWBf8y9Vt5G7CoxMchoA,18.7,14.8,Harris,RM482010310,1.05,OUT,37416,1934,1236,1,,,,,,,,,
583c8cad3af71,RMIatTXwithRMS,15918 Maple Shores Dr,Houston,TX,77044,15918 MAPLE SHORES DR,HOUSTON,TX,77044,-95.165077,29.956203,eyJ0eXAiOiJKV1QiLCJhbGciOiJIUzI1NiJ9.eyJpc3MiOiI1ODBmOWY1NjYzZjM5MDAwOTM2ZTA3ZmUiLCJleHAiOm51bGx9.8nW7NQwr066mjDZ-UjRXuLpeWBf8y9Vt5G7CoxMchoA,21.9,16.1,Harris,RM482010310,2.48,OUT,1472,2007,3359,4,1,1,,,,,,,
583c8c2c95791,RMIatTXwithRMS,904 Link Ave,Orange,TX,77630,904 LINK AVE,ORANGE,TX,77630,-93.738512,30.107204,eyJ0eXAiOiJKV1QiLCJhbGciOiJIUzI1NiJ9.eyJpc3MiOiI1ODBmOWY1NjYzZjM5MDAwOTM2ZTA3ZmUiLCJleHAiOm51bGx9.8nW7NQwr066mjDZ-UjRXuLpeWBf8y9Vt5G7CoxMchoA,26,8.1,Orange,RM483610100,1.13,OUT,4815,1948,1710,,,,,,,,,,
583c8c0324034,RMIatTXwithRMS,524 80th st,houston,TX,77012,524 80TH ST,HOUSTON,TX,77012,-95.280843,29.73244,eyJ0eXAiOiJKV1QiLCJhbGciOiJIUzI1NiJ9.eyJpc3MiOiI1ODBmOWY1NjYzZjM5MDAwOTM2ZTA3ZmUiLCJleHAiOm51bGx9.8nW7NQwr066mjDZ-UjRXuLpeWBf8y9Vt5G7CoxMchoA,17.3,12.8,Harris,RM482010310,0.43,OUT,31725,1930,1464,2,,,,,,,,,
583c8bf15dc41,RMIatTXwithRMS,,,,,,,,,,,eyJ0eXAiOiJKV1QiLCJhbGciOiJIUzI1NiJ9.eyJpc3MiOiI1ODBmOWY1NjYzZjM5MDAwOTM2ZTA3ZmUiLCJleHAiOm51bGx9.8nW7NQwr066mjDZ-UjRXuLpeWBf8y9Vt5G7CoxMchoA,,,,,,,,,,,,,13706 BanksView,Houston,TX,77059,0,0,False
583c8bd52b2b2,RMIatTXwithRMS,,,,,,,,,,,eyJ0eXAiOiJKV1QiLCJhbGciOiJIUzI1NiJ9.eyJpc3MiOiI1ODBmOWY1NjYzZjM5MDAwOTM2ZTA3ZmUiLCJleHAiOm51bGx9.8nW7NQwr066mjDZ-UjRXuLpeWBf8y9Vt5G7CoxMchoA,,,,,,,,,,,,,13706 Banks View,Houston,TX,77059,0,0,False
583c8bc005656,RMIatTXwithRMS,,,,,,,,,,,eyJ0eXAiOiJKV1QiLCJhbGciOiJIUzI1NiJ9.eyJpc3MiOiI1ODBmOWY1NjYzZjM5MDAwOTM2ZTA3ZmUiLCJleHAiOm51bGx9.8nW7NQwr066mjDZ-UjRXuLpeWBf8y9Vt5G7CoxMchoA,,,,,,,,,,,,,13706 Banks View Ct,Houston,TX,77059,0,0,False
583c8ae66756d,RMIatTXwithRMS,866 Artillery Dr,Canyon Lake,TX,78133,866 ARTILLERY DR,CANYON LAKE,TX,78133,-98.256355,29.899601,eyJ0eXAiOiJKV1QiLCJhbGciOiJIUzI1NiJ9.eyJpc3MiOiI1ODBmOWY1NjYzZjM5MDAwOTM2ZTA3ZmUiLCJleHAiOm51bGx9.8nW7NQwr066mjDZ-UjRXuLpeWBf8y9Vt5G7CoxMchoA,120.0,120.0,Comal,RM480916010,3.45,OUT,875,2012,1456,2,,,,,,,,,
583c8ac82f941,RMIatTXwithRMS,11402 LANTANA REACH DR,RICHMOND,TX,77406,11402 LANTANA REACH DR,RICHMOND,TX,77406,-95.819863,29.693294,eyJ0eXAiOiJKV1QiLCJhbGciOiJIUzI1NiJ9.eyJpc3MiOiI1ODBmOWY1NjYzZjM5MDAwOTM2ZTA3ZmUiLCJleHAiOm51bGx9.8nW7NQwr066mjDZ-UjRXuLpeWBf8y9Vt5G7CoxMchoA,49,46,Fort Bend,RM481570300,1.98,OUT,4328,2014,1914,2,,,,,,,,,
583c89f9d8e7c,RMIatTXwithRMS,2318 E SHANNON ST,DEER PARK,TX,77536,2318 E SHANNON ST,DEER PARK,TX,77536,-95.131458,29.689868,eyJ0eXAiOiJKV1QiLCJhbGciOiJIUzI1NiJ9.eyJpc3MiOiI1ODBmOWY1NjYzZjM5MDAwOTM2ZTA3ZmUiLCJleHAiOm51bGx9.8nW7NQwr066mjDZ-UjRXuLpeWBf8y9Vt5G7CoxMchoA,7.8,4.6,Harris,RM482010160,1.28,OUT,17997,1977,1726,2,,,,,,,,,
583c87851ce5b,RMIatTXwithRMS,21967 HARDWOOD TRL,NEW CANEY,TX,77357,21967 HARDWOOD TRL,NEW CANEY,TX,77357,-95.214647,30.18233,eyJ0eXAiOiJKV1QiLCJhbGciOiJIUzI1NiJ9.eyJpc3MiOiI1ODBmOWY1NjYzZjM5MDAwOTM2ZTA3ZmUiLCJleHAiOm51bGx9.8nW7NQwr066mjDZ-UjRXuLpeWBf8y9Vt5G7CoxMchoA,38,32,Montgomery,RM483391372,4.82,OUT,2853,2002,2497,4,1,1,,,,,,,
583c86a2ec7d5,RMIatTXwithRMS,,,,,,,,,,,eyJ0eXAiOiJKV1QiLCJhbGciOiJIUzI1NiJ9.eyJpc3MiOiI1ODBmOWY1NjYzZjM5MDAwOTM2ZTA3ZmUiLCJleHAiOm51bGx9.8nW7NQwr066mjDZ-UjRXuLpeWBf8y9Vt5G7CoxMchoA,,,,,,,,,,,,,443 sunrise,baytown,TX,77523,2,2,False
583c862108fa9,RMIatTXwithRMS,30785 High Meadow Circle,Magnolia,TX,77355,30785 S HIGH MEADOW CIR,MAGNOLIA,TX,77355,-95.790004,30.135426,eyJ0eXAiOiJKV1QiLCJhbGciOiJIUzI1NiJ9.eyJpc3MiOiI1ODBmOWY1NjYzZjM5MDAwOTM2ZTA3ZmUiLCJleHAiOm51bGx9.8nW7NQwr066mjDZ-UjRXuLpeWBf8y9Vt5G7CoxMchoA,58,52,Montgomery,RM483390380,2.65,OUT,2196,2002,2156,3,1,1,,,,,,,
583c85dfe08de,RMIatTXwithRMS,6929 Yellowstone Way Dr,Houston,TX,77054,6929 YELLOWSTONE WAY DR,HOUSTON,TX,77054,-95.377103,29.697224,eyJ0eXAiOiJKV1QiLCJhbGciOiJIUzI1NiJ9.eyJpc3MiOiI1ODBmOWY1NjYzZjM5MDAwOTM2ZTA3ZmUiLCJleHAiOm51bGx9.8nW7NQwr066mjDZ-UjRXuLpeWBf8y9Vt5G7CoxMchoA,22.3,18.9,Harris,RM482010310,1.75,OUT,20783,2006,1600,2,,,,,,,,,
583c83fcea0f0,RMIatTXwithRMS,269 Allens Alley,Brookeland,TX,75931,269 ALLENS ALY,BROOKELAND,TX,75931,-93.977165,31.191603,eyJ0eXAiOiJKV1QiLCJhbGciOiJIUzI1NiJ9.eyJpc3MiOiI1ODBmOWY1NjYzZjM5MDAwOTM2ZTA3ZmUiLCJleHAiOm51bGx9.8nW7NQwr066mjDZ-UjRXuLpeWBf8y9Vt5G7CoxMchoA,103,84,Sabine,RM484032078,4.62,OUT,0,,,,,,,,,,,,
583c83f751650,RMIatTXwithRMS,,,,,,,,,,,eyJ0eXAiOiJKV1QiLCJhbGciOiJIUzI1NiJ9.eyJpc3MiOiI1ODBmOWY1NjYzZjM5MDAwOTM2ZTA3ZmUiLCJleHAiOm51bGx9.8nW7NQwr066mjDZ-UjRXuLpeWBf8y9Vt5G7CoxMchoA,,,,,,,,,,,,,269 Allens Aly,Pineland,TX,75968,2,2,False
583c82b679633,RMIatTXwithRMS,2 GRAND MANOR CT,SUGAR LAND,TX,77479,2 GRAND MNR,SUGAR LAND,TX,77479,-95.605652,29.565959,eyJ0eXAiOiJKV1QiLCJhbGciOiJIUzI1NiJ9.eyJpc3MiOiI1ODBmOWY1NjYzZjM5MDAwOTM2ZTA3ZmUiLCJleHAiOm51bGx9.8nW7NQwr066mjDZ-UjRXuLpeWBf8y9Vt5G7CoxMchoA,36,35,Fort Bend,RM481570130,2.19,OUT,7330,,,,,,,,,,,,
583c8297d3188,RMIatTXwithRMS,714 Leamington,Sugar Land,TX,77479,714 LEAMINGTON ST,SUGAR LAND,TX,77479,-95.641635,29.600482,eyJ0eXAiOiJKV1QiLCJhbGciOiJIUzI1NiJ9.eyJpc3MiOiI1ODBmOWY1NjYzZjM5MDAwOTM2ZTA3ZmUiLCJleHAiOm51bGx9.8nW7NQwr066mjDZ-UjRXuLpeWBf8y9Vt5G7CoxMchoA,38,36,Fort Bend,RM481570130,1.62,OUT,5620,2013,4557,4,,,,,,,,,
583c8056469c2,RMIatTXwithRMS,1462 Country Park Drive,Katy,TX,77450,1462 COUNTRY PARK DR,KATY,TX,77450,-95.747117,29.759251,eyJ0eXAiOiJKV1QiLCJhbGciOiJIUzI1NiJ9.eyJpc3MiOiI1ODBmOWY1NjYzZjM5MDAwOTM2ZTA3ZmUiLCJleHAiOm51bGx9.8nW7NQwr066mjDZ-UjRXuLpeWBf8y9Vt5G7CoxMchoA,45,41,Harris,RM482010850,0.94,OUT,8926,1985,1737,2,,,,,,,,,
583c7dba5e2ea,RMIatTXwithRMS,3827 May Ridge Ln,Sugar Land,TX,77479,3827 MAY RIDGE LN,SUGAR LAND,TX,77479,-95.564728,29.550992,eyJ0eXAiOiJKV1QiLCJhbGciOiJIUzI1NiJ9.eyJpc3MiOiI1ODBmOWY1NjYzZjM5MDAwOTM2ZTA3ZmUiLCJleHAiOm51bGx9.8nW7NQwr066mjDZ-UjRXuLpeWBf8y9Vt5G7CoxMchoA,33,33,Fort Bend,RM481570370,2.94,OUT,7541,2014,2524,3,,,,,,,,,
583c7db862847,RMIatTXwithRMS,1619 Mary Mount Way,Houston,TX,77058,1619 MARY MOUNT WAY,HOUSTON,TX,77058,-95.111415,29.562902,eyJ0eXAiOiJKV1QiLCJhbGciOiJIUzI1NiJ9.eyJpc3MiOiI1ODBmOWY1NjYzZjM5MDAwOTM2ZTA3ZmUiLCJleHAiOm51bGx9.8nW7NQwr066mjDZ-UjRXuLpeWBf8y9Vt5G7CoxMchoA,5.6,5.6,Harris,RM482010310,0.62,OUT,7799,1982,1873,2,,,,,,,,,
583c7a797923d,RMIatTXwithRMS,2706 Royal Colony,Missouri City,TX,77459,2706 ROYAL COLONY LN,MISSOURI CITY,TX,77459,-95.570933,29.578286,eyJ0eXAiOiJKV1QiLCJhbGciOiJIUzI1NiJ9.eyJpc3MiOiI1ODBmOWY1NjYzZjM5MDAwOTM2ZTA3ZmUiLCJleHAiOm51bGx9.8nW7NQwr066mjDZ-UjRXuLpeWBf8y9Vt5G7CoxMchoA,34,33,Fort Bend,RM481570360,0.66,OUT,16879,2001,2887,2,,,,,,,,,
583c78f5520ad,RMIatTXwithRMS,17207 Lantana Dr,Sugar Land,TX,77479,17207 LANTANA DR,SUGAR LAND,TX,77479,-95.635523,29.58471,eyJ0eXAiOiJKV1QiLCJhbGciOiJIUzI1NiJ9.eyJpc3MiOiI1ODBmOWY1NjYzZjM5MDAwOTM2ZTA3ZmUiLCJleHAiOm51bGx9.8nW7NQwr066mjDZ-UjRXuLpeWBf8y9Vt5G7CoxMchoA,38,36,Fort Bend,RM481570130,1.47,OUT,7215,1994,2389,2,,,,,,,,,
583c78eb703a9,RMIatTXwithRMS,210 Leora Ave,Pasadena,TX,77506,210 LEORA AVE,PASADENA,TX,77506,-95.213227,29.696083,eyJ0eXAiOiJKV1QiLCJhbGciOiJIUzI1NiJ9.eyJpc3MiOiI1ODBmOWY1NjYzZjM5MDAwOTM2ZTA3ZmUiLCJleHAiOm51bGx9.8nW7NQwr066mjDZ-UjRXuLpeWBf8y9Vt5G7CoxMchoA,12.6,9.3,Harris,RM482010570,1.19,OUT,24207,1944,1678,1,,,,,,,,,
583c77405a450,RMIatTXwithRMS,313 bell ave,bridge city,TX,77611,313 BELL AVE,BRIDGE CITY,TX,77611,-93.847252,30.02772,eyJ0eXAiOiJKV1QiLCJhbGciOiJIUzI1NiJ9.eyJpc3MiOiI1ODBmOWY1NjYzZjM5MDAwOTM2ZTA3ZmUiLCJleHAiOm51bGx9.8nW7NQwr066mjDZ-UjRXuLpeWBf8y9Vt5G7CoxMchoA,21.3,2.7,Orange,RM483610130,1.00,OUT,2962,1961,1808,,,,,,,,,,
583c76b5a942b,RMIatTXwithRMS,6414 eaglewood green,spring,TX,77379,6414 EAGLEWOOD GREEN LN,SPRING,TX,77379,-95.516356,30.060175,eyJ0eXAiOiJKV1QiLCJhbGciOiJIUzI1NiJ9.eyJpc3MiOiI1ODBmOWY1NjYzZjM5MDAwOTM2ZTA3ZmUiLCJleHAiOm51bGx9.8nW7NQwr066mjDZ-UjRXuLpeWBf8y9Vt5G7CoxMchoA,42,36,Harris,RM482010410,2.33,OUT,2479,2001,4545,5,2,2,,,,,,,
583c76637c317,RMIatTXwithRMS,2213 Counrtry Club Dr,Pearland,TX,77581,2213 Country Club Dr,Pearland,TX,77581,-95.2365188598633,29.5710506439209,eyJ0eXAiOiJKV1QiLCJhbGciOiJIUzI1NiJ9.eyJpc3MiOiI1ODBmOWY1NjYzZjM5MDAwOTM2ZTA3ZmUiLCJleHAiOm51bGx9.8nW7NQwr066mjDZ-UjRXuLpeWBf8y9Vt5G7CoxMchoA,13.2,13.2,Harris,RM482010580,2.26,OUT,7344,1976,2150,2,,,,,,,,,
583c758f707a2,RMIatTXwithRMS,5640 Kiam st,Houston,TX,77007,5640 KIAM ST,HOUSTON,TX,77007,-95.424122,29.781441,eyJ0eXAiOiJKV1QiLCJhbGciOiJIUzI1NiJ9.eyJpc3MiOiI1ODBmOWY1NjYzZjM5MDAwOTM2ZTA3ZmUiLCJleHAiOm51bGx9.8nW7NQwr066mjDZ-UjRXuLpeWBf8y9Vt5G7CoxMchoA,27,21.7,Harris,RM482010310,0.50,OUT,45356,,,,,,,,,,,,
583c744407646,RMIatTXwithRMS,6618 Early Fall Dr.,Humble,TX,77338,6618 EARLY FALL DR,HUMBLE,TX,77338,-95.324152,30.019906,eyJ0eXAiOiJKV1QiLCJhbGciOiJIUzI1NiJ9.eyJpc3MiOiI1ODBmOWY1NjYzZjM5MDAwOTM2ZTA3ZmUiLCJleHAiOm51bGx9.8nW7NQwr066mjDZ-UjRXuLpeWBf8y9Vt5G7CoxMchoA,32,24.9,Harris,RM482010550,0.72,OUT,6284,2011,2319,2,,,,,,,,,
583c740605b5f,RMIatTXwithRMS,,,,,,,,,,,eyJ0eXAiOiJKV1QiLCJhbGciOiJIUzI1NiJ9.eyJpc3MiOiI1ODBmOWY1NjYzZjM5MDAwOTM2ZTA3ZmUiLCJleHAiOm51bGx9.8nW7NQwr066mjDZ-UjRXuLpeWBf8y9Vt5G7CoxMchoA,,,,,,,,,,,,,4709 ALUVIAL CT,ALVIN,TX,77581,0,0,False
583c73d17ebc5,RMIatTXwithRMS,321 County Road 3013,Dayton,TX,77535,321 COUNTY ROAD 3013,DAYTON,TX,77535,-94.986249,30.193484,eyJ0eXAiOiJKV1QiLCJhbGciOiJIUzI1NiJ9.eyJpc3MiOiI1ODBmOWY1NjYzZjM5MDAwOTM2ZTA3ZmUiLCJleHAiOm51bGx9.8nW7NQwr066mjDZ-UjRXuLpeWBf8y9Vt5G7CoxMchoA,32,30,Liberty,RM482912100,,OUT,728,1975,1920,2,,,,,,,,,
583c72d416029,RMIatTXwithRMS,5419 Ripple Lane,Spring,TX,77389,5419 RIPPLE LN,SPRING,TX,77389,-95.502899,30.088866,eyJ0eXAiOiJKV1QiLCJhbGciOiJIUzI1NiJ9.eyJpc3MiOiI1ODBmOWY1NjYzZjM5MDAwOTM2ZTA3ZmUiLCJleHAiOm51bGx9.8nW7NQwr066mjDZ-UjRXuLpeWBf8y9Vt5G7CoxMchoA,43,36,Harris,RM482010730,2.73,OUT,3734,1976,2049,2,,,,,,,,,
583c726bf2c4d,RMIatTXwithRMS,,,,,,,,,,,eyJ0eXAiOiJKV1QiLCJhbGciOiJIUzI1NiJ9.eyJpc3MiOiI1ODBmOWY1NjYzZjM5MDAwOTM2ZTA3ZmUiLCJleHAiOm51bGx9.8nW7NQwr066mjDZ-UjRXuLpeWBf8y9Vt5G7CoxMchoA,,,,,,,,,,,,,20618 Fertile Valley lane,Richmond,TX,77047,0,0,False
583c7222f2006,RMIatTXwithRMS,9239 Barrington,Missouri City,TX,77459,9239 BARRINGTON CIR,MISSOURI CITY,TX,77459,-95.526104,29.498849,eyJ0eXAiOiJKV1QiLCJhbGciOiJIUzI1NiJ9.eyJpc3MiOiI1ODBmOWY1NjYzZjM5MDAwOTM2ZTA3ZmUiLCJleHAiOm51bGx9.8nW7NQwr066mjDZ-UjRXuLpeWBf8y9Vt5G7CoxMchoA,31,29,Fort Bend,RM481570370,1.58,OUT,5837,2000,3782,4,,,,,,,,,
583c71adc1595,RMIatTXwithRMS,13419 Lakeview Meadow Dr,Richmond,TX,77469,13419 LAKEVIEW MEADOW DR,RICHMOND,TX,77469,-95.666331,29.454408,eyJ0eXAiOiJKV1QiLCJhbGciOiJIUzI1NiJ9.eyJpc3MiOiI1ODBmOWY1NjYzZjM5MDAwOTM2ZTA3ZmUiLCJleHAiOm51bGx9.8nW7NQwr066mjDZ-UjRXuLpeWBf8y9Vt5G7CoxMchoA,37,34,Fort Bend,RM481570310,,OUT,2309,2012,2588,3,,,,,,,,,
583c70cab5e05,RMIatTXwithRMS,9351 Kingsflower Cir.,Houston,TX,77075,9351 KINGSFLOWER CIR,HOUSTON,TX,77075,-95.244539,29.603776,eyJ0eXAiOiJKV1QiLCJhbGciOiJIUzI1NiJ9.eyJpc3MiOiI1ODBmOWY1NjYzZjM5MDAwOTM2ZTA3ZmUiLCJleHAiOm51bGx9.8nW7NQwr066mjDZ-UjRXuLpeWBf8y9Vt5G7CoxMchoA,14,13.4,Harris,RM482010310,1.40,OUT,4055,1998,1766,3,1,1,,,,,,,
583c70be7c355,RMIatTXwithRMS,1149 darren dr.,burleson,TX,76028,1149 DARREN DR,BURLESON,TX,76028,-97.337811,32.521654,eyJ0eXAiOiJKV1QiLCJhbGciOiJIUzI1NiJ9.eyJpc3MiOiI1ODBmOWY1NjYzZjM5MDAwOTM2ZTA3ZmUiLCJleHAiOm51bGx9.8nW7NQwr066mjDZ-UjRXuLpeWBf8y9Vt5G7CoxMchoA,120.0,120.0,Johnson,RM482514250,2.30,OUT,768,1999,1733,,,,,,,,,,
583c70bae32ed,RMIatTXwithRMS,3914 Wildwood Valley Court,Kingwood,TX,77345,3914 WILDWOOD VALLEY CT,KINGWOOD,TX,77345,-95.182933,30.076432,eyJ0eXAiOiJKV1QiLCJhbGciOiJIUzI1NiJ9.eyJpc3MiOiI1ODBmOWY1NjYzZjM5MDAwOTM2ZTA3ZmUiLCJleHAiOm51bGx9.8nW7NQwr066mjDZ-UjRXuLpeWBf8y9Vt5G7CoxMchoA,31,24.3,Harris,RM482010310,1.30,OUT,3399,1993,2651,3,1,1,,,,,,,
583c707f45ab0,RMIatTXwithRMS,14103 TREMONT PARK COURT,ROSHARON,TX,77583,14103 TREMONT PARK CT,ROSHARON,TX,77583,-95.441159,29.505788,eyJ0eXAiOiJKV1QiLCJhbGciOiJIUzI1NiJ9.eyJpc3MiOiI1ODBmOWY1NjYzZjM5MDAwOTM2ZTA3ZmUiLCJleHAiOm51bGx9.8nW7NQwr066mjDZ-UjRXuLpeWBf8y9Vt5G7CoxMchoA,26,26,Brazoria,RM480390540,1.44,,2129,2004,3180,4,1,1,,,,,,,
583c702aee406,RMIatTXwithRMS,,,,,,,,,,,eyJ0eXAiOiJKV1QiLCJhbGciOiJIUzI1NiJ9.eyJpc3MiOiI1ODBmOWY1NjYzZjM5MDAwOTM2ZTA3ZmUiLCJleHAiOm51bGx9.8nW7NQwr066mjDZ-UjRXuLpeWBf8y9Vt5G7CoxMchoA,,,,,,,,,,,,,20618 Fertile Valley lane,Houston,TX,77047,0,0,False
583c6ff38714d,RMIatTXwithRMS,518 W 18th Street,Houston,TX,77008,518 W 18TH ST,HOUSTON,TX,77008,-95.40689,29.801508,eyJ0eXAiOiJKV1QiLCJhbGciOiJIUzI1NiJ9.eyJpc3MiOiI1ODBmOWY1NjYzZjM5MDAwOTM2ZTA3ZmUiLCJleHAiOm51bGx9.8nW7NQwr066mjDZ-UjRXuLpeWBf8y9Vt5G7CoxMchoA,27,20.9,Harris,RM482010310,1.09,OUT,44061,2008,3154,5,1,1,,,,,,,
583c6fb3b8ab0,RMIatTXwithRMS,16402 MAPLE DOWNS LN,SUGAR LAND,TX,77498,16402 MAPLE DOWNS LN,SUGAR LAND,TX,77498,-95.672982,29.649096,eyJ0eXAiOiJKV1QiLCJhbGciOiJIUzI1NiJ9.eyJpc3MiOiI1ODBmOWY1NjYzZjM5MDAwOTM2ZTA3ZmUiLCJleHAiOm51bGx9.8nW7NQwr066mjDZ-UjRXuLpeWBf8y9Vt5G7CoxMchoA,40,38,Fort Bend,RM481570250,0.93,OUT,1796,1986,1869,2,,,,,,,,,
583c6f724c4e8,RMIatTXwithRMS,4916 CONCHO LN,MCKINNEY,TX,75070,4916 CONCHO LN,MCKINNEY,TX,75070,-96.692494,33.152462,eyJ0eXAiOiJKV1QiLCJhbGciOiJIUzI1NiJ9.eyJpc3MiOiI1ODBmOWY1NjYzZjM5MDAwOTM2ZTA3ZmUiLCJleHAiOm51bGx9.8nW7NQwr066mjDZ-UjRXuLpeWBf8y9Vt5G7CoxMchoA,120.0,120.0,Collin,RM480851709,2.27,OUT,6051,2009,2651,3,1,1,,,,,,,
583c6f682b4f9,RMIatTXwithRMS,6939 tieddmand,sugar land,TX,77479,6939 Tiedmann Park Way,Sugar Land,TX,77479,-95.6565170288086,29.5943374633789,eyJ0eXAiOiJKV1QiLCJhbGciOiJIUzI1NiJ9.eyJpc3MiOiI1ODBmOWY1NjYzZjM5MDAwOTM2ZTA3ZmUiLCJleHAiOm51bGx9.8nW7NQwr066mjDZ-UjRXuLpeWBf8y9Vt5G7CoxMchoA,39,37,Fort Bend,RM481570130,0.31,OUT,5463,2010,3461,3,,,,,,,,,
583c6dc65690c,RMIatTXwithRMS,2219 Frio Dr,Rosharon,TX,77583,2219 FRIO DR,ROSHARON,TX,77583,-95.419353,29.516319,eyJ0eXAiOiJKV1QiLCJhbGciOiJIUzI1NiJ9.eyJpc3MiOiI1ODBmOWY1NjYzZjM5MDAwOTM2ZTA3ZmUiLCJleHAiOm51bGx9.8nW7NQwr066mjDZ-UjRXuLpeWBf8y9Vt5G7CoxMchoA,24.3,24.3,Brazoria,RM480390500,1.08,,2239,2008,3182,3,1,1,,,,,,,
583c6d880ddb8,RMIatTXwithRMS,13419 Knightsway,Houston,TX,77083,13419 KNIGHTS WAY DR,HOUSTON,TX,77083,-95.620338,29.676438,eyJ0eXAiOiJKV1QiLCJhbGciOiJIUzI1NiJ9.eyJpc3MiOiI1ODBmOWY1NjYzZjM5MDAwOTM2ZTA3ZmUiLCJleHAiOm51bGx9.8nW7NQwr066mjDZ-UjRXuLpeWBf8y9Vt5G7CoxMchoA,37,34,Harris,RM482010110,1.04,OUT,14241,2002,1375,2,,,,,,,,,
583c6d4e9d72a,RMIatTXwithRMS,8210 Coletoville,Victoria,TX,77905,8210 COLETOVILLE RD,VICTORIA,TX,77905,-97.122194,28.82225,eyJ0eXAiOiJKV1QiLCJhbGciOiJIUzI1NiJ9.eyJpc3MiOiI1ODBmOWY1NjYzZjM5MDAwOTM2ZTA3ZmUiLCJleHAiOm51bGx9.8nW7NQwr066mjDZ-UjRXuLpeWBf8y9Vt5G7CoxMchoA,36,30,Victoria,RM484692800,6.88,OUT,176,,1572,,,,,,,,,,
583c6d3e20c22,RMIatTXwithRMS,3207 DOVE COVE CIR,Humble,TX,77396,3207 DOVE COVE CIR,HUMBLE,TX,77396,-95.271092,29.956362,eyJ0eXAiOiJKV1QiLCJhbGciOiJIUzI1NiJ9.eyJpc3MiOiI1ODBmOWY1NjYzZjM5MDAwOTM2ZTA3ZmUiLCJleHAiOm51bGx9.8nW7NQwr066mjDZ-UjRXuLpeWBf8y9Vt5G7CoxMchoA,26,19.4,Harris,RM482010340,3.78,OUT,13052,2006,2768,3,1,1,,,,,,,
583c6ccb3ee40,RMIatTXwithRMS,710 Skyline Ridge Lookout,Wimberley,TX,78676,710 SKYLINE RIDGE LOOKOUT,WIMBERLEY,TX,78676,-98.079889,30.033605,eyJ0eXAiOiJKV1QiLCJhbGciOiJIUzI1NiJ9.eyJpc3MiOiI1ODBmOWY1NjYzZjM5MDAwOTM2ZTA3ZmUiLCJleHAiOm51bGx9.8nW7NQwr066mjDZ-UjRXuLpeWBf8y9Vt5G7CoxMchoA,120.0,120.0,Hays,RM482091199,4.40,OUT,483,1994,2025,,,,,,,,,,
583c6c8341bdb,RMIatTXwithRMS,807 Cooper Creek Dr,Katy,TX,77450,807 COPPER CREEK DR,KATY,TX,77450,-95.768613,29.771578,eyJ0eXAiOiJKV1QiLCJhbGciOiJIUzI1NiJ9.eyJpc3MiOiI1ODBmOWY1NjYzZjM5MDAwOTM2ZTA3ZmUiLCJleHAiOm51bGx9.8nW7NQwr066mjDZ-UjRXuLpeWBf8y9Vt5G7CoxMchoA,47,43,Harris,RM482010850,1.65,OUT,17088,1990,2700,3,1,1,,,,,,,
583c6b63ae85e,RMIatTXwithRMS,700 evangeline,vidor,TX,77662,700 EVANGELINE DR,VIDOR,TX,77662,-94.00683,30.157668,eyJ0eXAiOiJKV1QiLCJhbGciOiJIUzI1NiJ9.eyJpc3MiOiI1ODBmOWY1NjYzZjM5MDAwOTM2ZTA3ZmUiLCJleHAiOm51bGx9.8nW7NQwr066mjDZ-UjRXuLpeWBf8y9Vt5G7CoxMchoA,33,14.5,Orange,RM483611191,2.36,OUT,147,2005,2607,,,,,,,,,,
583c6b2d07fa9,RMIatTXwithRMS,12211 IRIS HOLLOW WAY,HOUSTON,TX,77058,12211 IRIS HOLLOW WAY,HOUSTON,TX,77089,-95.198593,29.581643,eyJ0eXAiOiJKV1QiLCJhbGciOiJIUzI1NiJ9.eyJpc3MiOiI1ODBmOWY1NjYzZjM5MDAwOTM2ZTA3ZmUiLCJleHAiOm51bGx9.8nW7NQwr066mjDZ-UjRXuLpeWBf8y9Vt5G7CoxMchoA,11,11,Harris,RM482010700,1.53,OUT,2111,2008,1535,2,,,,,,,,,
583c6a827e110,RMIatTXwithRMS,2503 Harvest CV,Friendswood,TX,77546,2503 HARVEST CV,FRIENDSWOOD,TX,77546,-95.16419,29.534338,eyJ0eXAiOiJKV1QiLCJhbGciOiJIUzI1NiJ9.eyJpc3MiOiI1ODBmOWY1NjYzZjM5MDAwOTM2ZTA3ZmUiLCJleHAiOm51bGx9.8nW7NQwr066mjDZ-UjRXuLpeWBf8y9Vt5G7CoxMchoA,8.8,8.8,Harris,RM482010320,0.24,OUT,1566,1979,1608,2,,,,,,,,,
583c6966d85e0,RMIatTXwithRMS,1714 Thompson,Mission,TX,78573,1714 THOMPSON RD,MISSION,TX,78573,-98.341136,26.25113,eyJ0eXAiOiJKV1QiLCJhbGciOiJIUzI1NiJ9.eyJpc3MiOiI1ODBmOWY1NjYzZjM5MDAwOTM2ZTA3ZmUiLCJleHAiOm51bGx9.8nW7NQwr066mjDZ-UjRXuLpeWBf8y9Vt5G7CoxMchoA,56,56,Hidalgo,RM482150120,0.21,OUT,2681,2009,1014,2,,,,,,,,,
583c693bc2691,RMIatTXwithRMS,2106 Platinum Mist Dr,Rosharon,TX,77583,2106 Platinum Mist Dr,Rosharon,TX,77583,-95.4432373046875,29.4441680908203,eyJ0eXAiOiJKV1QiLCJhbGciOiJIUzI1NiJ9.eyJpc3MiOiI1ODBmOWY1NjYzZjM5MDAwOTM2ZTA3ZmUiLCJleHAiOm51bGx9.8nW7NQwr066mjDZ-UjRXuLpeWBf8y9Vt5G7CoxMchoA,26,22.1,Brazoria,RM480390440,4.11,,1159,,,,,,,,,,,,
583c688e728ad,RMIatTXwithRMS,723 Cheltenham Dr,Katy,TX,77450,723 CHELTENHAM DR,KATY,TX,77450,-95.726715,29.778398,eyJ0eXAiOiJKV1QiLCJhbGciOiJIUzI1NiJ9.eyJpc3MiOiI1ODBmOWY1NjYzZjM5MDAwOTM2ZTA3ZmUiLCJleHAiOm51bGx9.8nW7NQwr066mjDZ-UjRXuLpeWBf8y9Vt5G7CoxMchoA,44,40,Harris,RM482010850,0.68,OUT,10046,1976,1696,2,,,,,,,,,
583c6869266a9,RMIatTXwithRMS,144 Johns Ave,BROWNSVILLE,TX,78521,144 JOHNS AVE,BROWNSVILLE,TX,78521,-97.44449,25.917081,eyJ0eXAiOiJKV1QiLCJhbGciOiJIUzI1NiJ9.eyJpc3MiOiI1ODBmOWY1NjYzZjM5MDAwOTM2ZTA3ZmUiLCJleHAiOm51bGx9.8nW7NQwr066mjDZ-UjRXuLpeWBf8y9Vt5G7CoxMchoA,13.1,10.9,Cameron,RM480610800,1.44,,8687,1994,989,,,,,,,,,,
583c680c1f3c6,RMIatTXwithRMS,7634 Montglen,Houston,TX,77061,7634 MONTGLEN ST,HOUSTON,TX,77061,-95.283138,29.674509,eyJ0eXAiOiJKV1QiLCJhbGciOiJIUzI1NiJ9.eyJpc3MiOiI1ODBmOWY1NjYzZjM5MDAwOTM2ZTA3ZmUiLCJleHAiOm51bGx9.8nW7NQwr066mjDZ-UjRXuLpeWBf8y9Vt5G7CoxMchoA,16.4,13.8,Harris,RM482010310,1.93,OUT,21230,1964,2231,3,1,1,,,,,,,
583c67405fec0,RMIatTXwithRMS,4734 Waring St,Houston,TX,77027,4734 WARING ST,HOUSTON,TX,77027,-95.457678,29.734041,eyJ0eXAiOiJKV1QiLCJhbGciOiJIUzI1NiJ9.eyJpc3MiOiI1ODBmOWY1NjYzZjM5MDAwOTM2ZTA3ZmUiLCJleHAiOm51bGx9.8nW7NQwr066mjDZ-UjRXuLpeWBf8y9Vt5G7CoxMchoA,28,23.4,Harris,RM482010310,1.50,OUT,29292,2005,4533,4,1,1,,,,,,,
583c66f323bbd,RMIatTXwithRMS,681 County Road 604,Kirbyville,TX,75956,681 County Road 604,Kirbyville,TX,75956,-93.9205093383789,30.5596866607666,eyJ0eXAiOiJKV1QiLCJhbGciOiJIUzI1NiJ9.eyJpc3MiOiI1ODBmOWY1NjYzZjM5MDAwOTM2ZTA3ZmUiLCJleHAiOm51bGx9.8nW7NQwr066mjDZ-UjRXuLpeWBf8y9Vt5G7CoxMchoA,59,40,Jasper,RM482412520,,OUT,0,,,,,,,,,,,,
583c66908ff3d,RMIatTXwithRMS,11402 Chaucer Oaks CT,Houston,TX,77082,11402 CHAUCER OAKS CT,HOUSTON,TX,77082,-95.575099,29.724268,eyJ0eXAiOiJKV1QiLCJhbGciOiJIUzI1NiJ9.eyJpc3MiOiI1ODBmOWY1NjYzZjM5MDAwOTM2ZTA3ZmUiLCJleHAiOm51bGx9.8nW7NQwr066mjDZ-UjRXuLpeWBf8y9Vt5G7CoxMchoA,35,31,Harris,RM482010310,0.39,OUT,24167,2004,6341,7,2,2,,,,,,,
583c64b088188,RMIatTXwithRMS,22310 Keystone Trail,kATY,TX,77450,22310 KEYSTONE TRL,KATY,TX,77450,-95.760118,29.759466,eyJ0eXAiOiJKV1QiLCJhbGciOiJIUzI1NiJ9.eyJpc3MiOiI1ODBmOWY1NjYzZjM5MDAwOTM2ZTA3ZmUiLCJleHAiOm51bGx9.8nW7NQwr066mjDZ-UjRXuLpeWBf8y9Vt5G7CoxMchoA,46,42,Harris,RM482010850,1.87,OUT,12518,1998,2504,3,1,1,,,,,,,
583c64a982240,RMIatTXwithRMS,25968 brooks rd,waller,TX,77484,25968 BROOKS RD,WALLER,TX,77484,-95.89426,30.214924,eyJ0eXAiOiJKV1QiLCJhbGciOiJIUzI1NiJ9.eyJpc3MiOiI1ODBmOWY1NjYzZjM5MDAwOTM2ZTA3ZmUiLCJleHAiOm51bGx9.8nW7NQwr066mjDZ-UjRXuLpeWBf8y9Vt5G7CoxMchoA,67,60,Waller,RM484732647,3.93,OUT,1072,,3390,,,,,,,,,,
583c63a11f650,RMIatTXwithRMS,8306 Kirkbrook Dr,houston,TX,77089,8306 KIRKBROOK DR,HOUSTON,TX,77089,-95.249778,29.58568,eyJ0eXAiOiJKV1QiLCJhbGciOiJIUzI1NiJ9.eyJpc3MiOiI1ODBmOWY1NjYzZjM5MDAwOTM2ZTA3ZmUiLCJleHAiOm51bGx9.8nW7NQwr066mjDZ-UjRXuLpeWBf8y9Vt5G7CoxMchoA,14.1,14.1,Harris,RM482010700,1.18,OUT,1351,2002,2471,2,,,,,,,,,
583c62b0c453f,RMIatTXwithRMS,11611 Iron Weed Dr,Houston,TX,77095,11611 IRON WEED DR,HOUSTON,TX,77095,-95.66726,29.940948,eyJ0eXAiOiJKV1QiLCJhbGciOiJIUzI1NiJ9.eyJpc3MiOiI1ODBmOWY1NjYzZjM5MDAwOTM2ZTA3ZmUiLCJleHAiOm51bGx9.8nW7NQwr066mjDZ-UjRXuLpeWBf8y9Vt5G7CoxMchoA,45,39,Harris,RM482010310,3.62,OUT,6312,2001,3907,4,,,,,,,,,
583c62715aea0,RMIatTXwithRMS,418 SHADOW CREEK DR,EL LAGO,TX,77586,418 SHADOW CREEK DR,EL LAGO,TX,77586,-95.042289,29.570499,eyJ0eXAiOiJKV1QiLCJhbGciOiJIUzI1NiJ9.eyJpc3MiOiI1ODBmOWY1NjYzZjM5MDAwOTM2ZTA3ZmUiLCJleHAiOm51bGx9.8nW7NQwr066mjDZ-UjRXuLpeWBf8y9Vt5G7CoxMchoA,1.8,1.8,Harris,RM482010190,0.88,OUT,7258,1964,2192,2,,,,,,,,,
583c624ad397c,RMIatTXwithRMS,1615 Xanthisma Ave,McAllen,TX,78504,1615 XANTHISMA AVE,MCALLEN,TX,78504,-98.229967,26.24918,eyJ0eXAiOiJKV1QiLCJhbGciOiJIUzI1NiJ9.eyJpc3MiOiI1ODBmOWY1NjYzZjM5MDAwOTM2ZTA3ZmUiLCJleHAiOm51bGx9.8nW7NQwr066mjDZ-UjRXuLpeWBf8y9Vt5G7CoxMchoA,49,49,Hidalgo,RM482150100,1.52,OUT,9122,1974,2318,2,,,,,,,,,
583c622fab1fd,RMIatTXwithRMS,10506 Golden Hearth Ln,Cypress,TX,77433,10506 GOLDEN HEARTH LN,CYPRESS,TX,77433,-95.713905,29.931481,eyJ0eXAiOiJKV1QiLCJhbGciOiJIUzI1NiJ9.eyJpc3MiOiI1ODBmOWY1NjYzZjM5MDAwOTM2ZTA3ZmUiLCJleHAiOm51bGx9.8nW7NQwr066mjDZ-UjRXuLpeWBf8y9Vt5G7CoxMchoA,47,42,Harris,RM482010140,2.61,OUT,7554,2011,3576,4,,,,,,,,,
583c6214d68de,RMIatTXwithRMS,108 Martha,Weslaco,TX,78599,108 MARTHA ST,WESLACO,TX,78599,-97.989969,26.176504,eyJ0eXAiOiJKV1QiLCJhbGciOiJIUzI1NiJ9.eyJpc3MiOiI1ODBmOWY1NjYzZjM5MDAwOTM2ZTA3ZmUiLCJleHAiOm51bGx9.8nW7NQwr066mjDZ-UjRXuLpeWBf8y9Vt5G7CoxMchoA,38,38,Hidalgo,RM482150210,1.24,OUT,12508,1986,992,2,,,,,,,,,
583c620be1093,RMIatTXwithRMS,2623 Kneitz St,Needville,TX,77461,2623 KNEITZ ST,NEEDVILLE,TX,77461,-95.83089,29.400996,eyJ0eXAiOiJKV1QiLCJhbGciOiJIUzI1NiJ9.eyJpc3MiOiI1ODBmOWY1NjYzZjM5MDAwOTM2ZTA3ZmUiLCJleHAiOm51bGx9.8nW7NQwr066mjDZ-UjRXuLpeWBf8y9Vt5G7CoxMchoA,44,41,Fort Bend,RM481570070,0.80,OUT,1255,1965,2128,2,,,,,,,,,
583c619e80f83,RMIatTXwithRMS,337 W BEND DR,LEAGUE CITY,TX,77573,337 W BEND DR,LEAGUE CITY,TX,77573,-95.165801,29.48359,eyJ0eXAiOiJKV1QiLCJhbGciOiJIUzI1NiJ9.eyJpc3MiOiI1ODBmOWY1NjYzZjM5MDAwOTM2ZTA3ZmUiLCJleHAiOm51bGx9.8nW7NQwr066mjDZ-UjRXuLpeWBf8y9Vt5G7CoxMchoA,10,10,Galveston,RM481671340,1.47,,1574,,,,,,,,,,,,
583c604e889a2,RMIatTXwithRMS,,,,,,,,,,,eyJ0eXAiOiJKV1QiLCJhbGciOiJIUzI1NiJ9.eyJpc3MiOiI1ODBmOWY1NjYzZjM5MDAwOTM2ZTA3ZmUiLCJleHAiOm51bGx9.8nW7NQwr066mjDZ-UjRXuLpeWBf8y9Vt5G7CoxMchoA,,,,,,,,,,,,,7509 Elizondo Dr,Corpus Christi,TX,78414,0,0,False
583c6021216ed,RMIatTXwithRMS,3580 MILE 13 NORTH,MERCEDES,TX,78570,3580 MILE 13 N,MERCEDES,TX,78570,-97.904876,26.245686,eyJ0eXAiOiJKV1QiLCJhbGciOiJIUzI1NiJ9.eyJpc3MiOiI1ODBmOWY1NjYzZjM5MDAwOTM2ZTA3ZmUiLCJleHAiOm51bGx9.8nW7NQwr066mjDZ-UjRXuLpeWBf8y9Vt5G7CoxMchoA,31,31,Hidalgo,RM482150221,4.97,OUT,0,,,,,,,,,,,,
583c5ff615522,RMIatTXwithRMS,2922 Park Springs Ln,Sugar Land,TX,77479,2922 PARK SPRINGS LN,SUGAR LAND,TX,77479,-95.690564,29.569003,eyJ0eXAiOiJKV1QiLCJhbGciOiJIUzI1NiJ9.eyJpc3MiOiI1ODBmOWY1NjYzZjM5MDAwOTM2ZTA3ZmUiLCJleHAiOm51bGx9.8nW7NQwr066mjDZ-UjRXuLpeWBf8y9Vt5G7CoxMchoA,41,40,Fort Bend,RM481570130,2.32,OUT,1917,2003,2018,2,,,,,,,,,
583c5fa22306a,RMIatTXwithRMS,25059 Bow Wood Court,Spring,TX,77389,25059 BOW WOOD CT,SPRING,TX,77389,-95.516881,30.12381,eyJ0eXAiOiJKV1QiLCJhbGciOiJIUzI1NiJ9.eyJpc3MiOiI1ODBmOWY1NjYzZjM5MDAwOTM2ZTA3ZmUiLCJleHAiOm51bGx9.8nW7NQwr066mjDZ-UjRXuLpeWBf8y9Vt5G7CoxMchoA,45,38,Harris,RM482010730,2.22,OUT,3581,2006,2619,3,,,,,,,,,
583c5f92295ec,RMIatTXwithRMS,17906 Treemont Lnd,Houston,TX,77084,17906 TREEMONT LNDG,HOUSTON,TX,77084,-95.673373,29.833724,eyJ0eXAiOiJKV1QiLCJhbGciOiJIUzI1NiJ9.eyJpc3MiOiI1ODBmOWY1NjYzZjM5MDAwOTM2ZTA3ZmUiLCJleHAiOm51bGx9.8nW7NQwr066mjDZ-UjRXuLpeWBf8y9Vt5G7CoxMchoA,42,38,Harris,RM482010310,2.42,OUT,2285,2005,2195,2,,,,,,,,,
583c5f8caa18f,RMIatTXwithRMS,,,,,,,,,,,eyJ0eXAiOiJKV1QiLCJhbGciOiJIUzI1NiJ9.eyJpc3MiOiI1ODBmOWY1NjYzZjM5MDAwOTM2ZTA3ZmUiLCJleHAiOm51bGx9.8nW7NQwr066mjDZ-UjRXuLpeWBf8y9Vt5G7CoxMchoA,,,,,,,,,,,,,7509 Elizondo Dr,Corpus Christi,TX,78414,0,0,False
583c5f8140373,RMIatTXwithRMS,,,,,,,,,,,eyJ0eXAiOiJKV1QiLCJhbGciOiJIUzI1NiJ9.eyJpc3MiOiI1ODBmOWY1NjYzZjM5MDAwOTM2ZTA3ZmUiLCJleHAiOm51bGx9.8nW7NQwr066mjDZ-UjRXuLpeWBf8y9Vt5G7CoxMchoA,,,,,,,,,,,,,7509 Elizondo Dr,Corp Christi,TX,78414,0,0,False
583c5f6a97813,RMIatTXwithRMS,,,,,,,,,,,eyJ0eXAiOiJKV1QiLCJhbGciOiJIUzI1NiJ9.eyJpc3MiOiI1ODBmOWY1NjYzZjM5MDAwOTM2ZTA3ZmUiLCJleHAiOm51bGx9.8nW7NQwr066mjDZ-UjRXuLpeWBf8y9Vt5G7CoxMchoA,,,,,,,,,,,,,7509 Elizondo Dr,Corp Christi,TX,78414,0,0,False
583c5f57a9dfd,RMIatTXwithRMS,,,,,,,,,,,eyJ0eXAiOiJKV1QiLCJhbGciOiJIUzI1NiJ9.eyJpc3MiOiI1ODBmOWY1NjYzZjM5MDAwOTM2ZTA3ZmUiLCJleHAiOm51bGx9.8nW7NQwr066mjDZ-UjRXuLpeWBf8y9Vt5G7CoxMchoA,,,,,,,,,,,,,7509 Elizondo Dr,Corpus Christi,TX,78414,0,0,False
583c5f4c75925,RMIatTXwithRMS,2329 11th St,Port neches,TX,77651,2329 11TH ST,PORT NECHES,TX,77651,-93.968802,29.980446,eyJ0eXAiOiJKV1QiLCJhbGciOiJIUzI1NiJ9.eyJpc3MiOiI1ODBmOWY1NjYzZjM5MDAwOTM2ZTA3ZmUiLCJleHAiOm51bGx9.8nW7NQwr066mjDZ-UjRXuLpeWBf8y9Vt5G7CoxMchoA,20.7,6.3,Jefferson,RM482450040,1.10,,4000,1962,1397,,,,,,,,,,
583c5eae343c3,RMIatTXwithRMS,22002 GALAPAGOS CT,KATY,TX,77449,22002 GALAPAGOS CT,KATY,TX,77449,-95.753813,29.812489,eyJ0eXAiOiJKV1QiLCJhbGciOiJIUzI1NiJ9.eyJpc3MiOiI1ODBmOWY1NjYzZjM5MDAwOTM2ZTA3ZmUiLCJleHAiOm51bGx9.8nW7NQwr066mjDZ-UjRXuLpeWBf8y9Vt5G7CoxMchoA,46,42,Harris,RM482010850,1.61,OUT,6232,2008,1928,2,,,,,,,,,
583c5dfeed191,RMIatTXwithRMS,3807 Cottonwood Dr,La Porte,TX,77571,3807 COTTONWOOD DR,LA PORTE,TX,77571,-95.064258,29.654265,eyJ0eXAiOiJKV1QiLCJhbGciOiJIUzI1NiJ9.eyJpc3MiOiI1ODBmOWY1NjYzZjM5MDAwOTM2ZTA3ZmUiLCJleHAiOm51bGx9.8nW7NQwr066mjDZ-UjRXuLpeWBf8y9Vt5G7CoxMchoA,3.2,3.2,Harris,RM482010531,2.38,OUT,4824,1982,1861,2,,,,,,,,,
583c5dc93718b,RMIatTXwithRMS,1807 Coretta Ct,FRESNO,TX,77545,1807 CORETTA CT,FRESNO,TX,77545,-95.480801,29.525466,eyJ0eXAiOiJKV1QiLCJhbGciOiJIUzI1NiJ9.eyJpc3MiOiI1ODBmOWY1NjYzZjM5MDAwOTM2ZTA3ZmUiLCJleHAiOm51bGx9.8nW7NQwr066mjDZ-UjRXuLpeWBf8y9Vt5G7CoxMchoA,28,28,Fort Bend,RM481570160,1.97,OUT,3877,1998,2290,2,,,,,,,,,
583c5d389be4f,RMIatTXwithRMS,4702 Cinco Forest Trail,Katy,TX,77494,4702 CINCO FOREST TRL,KATY,TX,77494,-95.838529,29.717932,eyJ0eXAiOiJKV1QiLCJhbGciOiJIUzI1NiJ9.eyJpc3MiOiI1ODBmOWY1NjYzZjM5MDAwOTM2ZTA3ZmUiLCJleHAiOm51bGx9.8nW7NQwr066mjDZ-UjRXuLpeWBf8y9Vt5G7CoxMchoA,51,47,Fort Bend,RM481570220,1.90,OUT,9911,2012,3817,3,,,,,,,,,
583c5c83805a5,RMIatTXwithRMS,17619 hanoverian dr.,richmond,TX,77407,17619 HANOVERIAN DR,RICHMOND,TX,77407,-95.694279,29.659461,eyJ0eXAiOiJKV1QiLCJhbGciOiJIUzI1NiJ9.eyJpc3MiOiI1ODBmOWY1NjYzZjM5MDAwOTM2ZTA3ZmUiLCJleHAiOm51bGx9.8nW7NQwr066mjDZ-UjRXuLpeWBf8y9Vt5G7CoxMchoA,41,39,Fort Bend,RM481570310,1.50,OUT,2287,2013,4679,5,,,,,,,,,
583c5c7b4e864,RMIatTXwithRMS,4955 Timber Path Dr,Humble,TX,77346,4955 TIMBER PATH DR,HUMBLE,TX,77346,-95.198567,29.98481,eyJ0eXAiOiJKV1QiLCJhbGciOiJIUzI1NiJ9.eyJpc3MiOiI1ODBmOWY1NjYzZjM5MDAwOTM2ZTA3ZmUiLCJleHAiOm51bGx9.8nW7NQwr066mjDZ-UjRXuLpeWBf8y9Vt5G7CoxMchoA,24.7,18.7,Harris,RM482010030,0.92,OUT,2805,2001,3376,4,1,1,,,,,,,
583c5c4300c13,RMIatTXwithRMS,6840 Essex,Groves,TX,77619,6840 ESSEX LN,GROVES,TX,77619,-93.895011,29.944752,eyJ0eXAiOiJKV1QiLCJhbGciOiJIUzI1NiJ9.eyJpc3MiOiI1ODBmOWY1NjYzZjM5MDAwOTM2ZTA3ZmUiLCJleHAiOm51bGx9.8nW7NQwr066mjDZ-UjRXuLpeWBf8y9Vt5G7CoxMchoA,17,1.9,Jefferson,RM482450150,1.92,,3154,1993,1886,,,,,,,,,,
583c5c0255e5a,RMIatTXwithRMS,1523 N ave R,Freeport,TX,77541,1523 N AVENUE R,FREEPORT,TX,77541,-95.367713,28.981844,eyJ0eXAiOiJKV1QiLCJhbGciOiJIUzI1NiJ9.eyJpc3MiOiI1ODBmOWY1NjYzZjM5MDAwOTM2ZTA3ZmUiLCJleHAiOm51bGx9.8nW7NQwr066mjDZ-UjRXuLpeWBf8y9Vt5G7CoxMchoA,5.1,5.1,Brazoria,RM480390400,1.16,,4670,1977,1204,2,,,,,,,,,
583c5b6378568,RMIatTXwithRMS,,,,,,,,,,,eyJ0eXAiOiJKV1QiLCJhbGciOiJIUzI1NiJ9.eyJpc3MiOiI1ODBmOWY1NjYzZjM5MDAwOTM2ZTA3ZmUiLCJleHAiOm51bGx9.8nW7NQwr066mjDZ-UjRXuLpeWBf8y9Vt5G7CoxMchoA,,,,,,,,,,,,,178 Village East Dr,Los Fresnos,TX,78566,2,2,False
583c5b5db8f18,RMIatTXwithRMS,,,,,,,,,,,eyJ0eXAiOiJKV1QiLCJhbGciOiJIUzI1NiJ9.eyJpc3MiOiI1ODBmOWY1NjYzZjM5MDAwOTM2ZTA3ZmUiLCJleHAiOm51bGx9.8nW7NQwr066mjDZ-UjRXuLpeWBf8y9Vt5G7CoxMchoA,,,,,,,,,,,,,178 Village East Dr,Los Fresnos,TX,78566,2,2,False
583c5b56768bf,RMIatTXwithRMS,,,,,,,,,,,eyJ0eXAiOiJKV1QiLCJhbGciOiJIUzI1NiJ9.eyJpc3MiOiI1ODBmOWY1NjYzZjM5MDAwOTM2ZTA3ZmUiLCJleHAiOm51bGx9.8nW7NQwr066mjDZ-UjRXuLpeWBf8y9Vt5G7CoxMchoA,,,,,,,,,,,,,178 Village East Dr,Los Fresnos,TX,78566,2,2,False
583c5b4984ad7,RMIatTXwithRMS,,,,,,,,,,,eyJ0eXAiOiJKV1QiLCJhbGciOiJIUzI1NiJ9.eyJpc3MiOiI1ODBmOWY1NjYzZjM5MDAwOTM2ZTA3ZmUiLCJleHAiOm51bGx9.8nW7NQwr066mjDZ-UjRXuLpeWBf8y9Vt5G7CoxMchoA,,,,,,,,,,,,,178 Village East Dr,Los Fresnos,TX,78566,2,2,False
583c5b43895dd,RMIatTXwithRMS,,,,,,,,,,,eyJ0eXAiOiJKV1QiLCJhbGciOiJIUzI1NiJ9.eyJpc3MiOiI1ODBmOWY1NjYzZjM5MDAwOTM2ZTA3ZmUiLCJleHAiOm51bGx9.8nW7NQwr066mjDZ-UjRXuLpeWBf8y9Vt5G7CoxMchoA,,,,,,,,,,,,,178 Village East Dr,Los Fresnos,TX,78566,2,2,False
583c5b36a9887,RMIatTXwithRMS,,,,,,,,,,,eyJ0eXAiOiJKV1QiLCJhbGciOiJIUzI1NiJ9.eyJpc3MiOiI1ODBmOWY1NjYzZjM5MDAwOTM2ZTA3ZmUiLCJleHAiOm51bGx9.8nW7NQwr066mjDZ-UjRXuLpeWBf8y9Vt5G7CoxMchoA,,,,,,,,,,,,,178 Village East Dr,Los Fresnos,TX,78566,2,2,False
583c5b2fb68e9,RMIatTXwithRMS,,,,,,,,,,,eyJ0eXAiOiJKV1QiLCJhbGciOiJIUzI1NiJ9.eyJpc3MiOiI1ODBmOWY1NjYzZjM5MDAwOTM2ZTA3ZmUiLCJleHAiOm51bGx9.8nW7NQwr066mjDZ-UjRXuLpeWBf8y9Vt5G7CoxMchoA,,,,,,,,,,,,,178 Village East Dr,Los Fresnos,TX,78566,2,2,False
583c5a94662f2,RMIatTXwithRMS,12202 SUNLIGHT PEAK LN,HUMBLE,TX,77346,12202 SUNLIGHT PEAK LN,HUMBLE,TX,77346,-95.197532,29.967109,eyJ0eXAiOiJKV1QiLCJhbGciOiJIUzI1NiJ9.eyJpc3MiOiI1ODBmOWY1NjYzZjM5MDAwOTM2ZTA3ZmUiLCJleHAiOm51bGx9.8nW7NQwr066mjDZ-UjRXuLpeWBf8y9Vt5G7CoxMchoA,23.7,17.6,Harris,RM482010030,2.79,OUT,1809,2005,2218,3,1,1,,,,,,,
583c5a0451edb,RMIatTXwithRMS,5214 Eigel St Unit E,Houston,TX,77007,5214 EIGEL ST APT E,HOUSTON,TX,77007,-95.41436,29.77508,eyJ0eXAiOiJKV1QiLCJhbGciOiJIUzI1NiJ9.eyJpc3MiOiI1ODBmOWY1NjYzZjM5MDAwOTM2ZTA3ZmUiLCJleHAiOm51bGx9.8nW7NQwr066mjDZ-UjRXuLpeWBf8y9Vt5G7CoxMchoA,26,21.1,Harris,RM482010310,0.59,OUT,43135,2001,2317,4,1,1,,,,,,,
583c5936c0064,RMIatTXwithRMS,6140 Jason St,Houston,TX,77074,6140 JASON ST,HOUSTON,TX,77074,-95.500156,29.684396,eyJ0eXAiOiJKV1QiLCJhbGciOiJIUzI1NiJ9.eyJpc3MiOiI1ODBmOWY1NjYzZjM5MDAwOTM2ZTA3ZmUiLCJleHAiOm51bGx9.8nW7NQwr066mjDZ-UjRXuLpeWBf8y9Vt5G7CoxMchoA,30,27,Harris,RM482010310,2.11,OUT,23008,1953,1152,2,1,1,,,,,,,
583c5936930b8,RMIatTXwithRMS,1634 LONE STIRRUP DR,RICHMOND,TX,77406,1634 LONE STIRRUP DR,RICHMOND,TX,77406,-95.750613,29.615839,eyJ0eXAiOiJKV1QiLCJhbGciOiJIUzI1NiJ9.eyJpc3MiOiI1ODBmOWY1NjYzZjM5MDAwOTM2ZTA3ZmUiLCJleHAiOm51bGx9.8nW7NQwr066mjDZ-UjRXuLpeWBf8y9Vt5G7CoxMchoA,45,43,Fort Bend,RM481570310,2.01,OUT,2208,2014,7311,3,,,,,,,,,
583c55645916b,RMIatTXwithRMS,7410 WOODWARD SPRING DR,PEARLAND,TX,77584,7410 WOODY RD,PEARLAND,TX,77581,-95.301092,29.560606,eyJ0eXAiOiJKV1QiLCJhbGciOiJIUzI1NiJ9.eyJpc3MiOiI1ODBmOWY1NjYzZjM5MDAwOTM2ZTA3ZmUiLCJleHAiOm51bGx9.8nW7NQwr066mjDZ-UjRXuLpeWBf8y9Vt5G7CoxMchoA,17,17,Brazoria,RM480390530,0.47,,4577,,,,,,,,,,,,
583c55501fde4,RMIatTXwithRMS,1509 W Hwy 285,Falfurrias,TX,78355,1509 W US HIGHWAY 285,FALFURRIAS,TX,78355,-98.163307,27.228646,eyJ0eXAiOiJKV1QiLCJhbGciOiJIUzI1NiJ9.eyJpc3MiOiI1ODBmOWY1NjYzZjM5MDAwOTM2ZTA3ZmUiLCJleHAiOm51bGx9.8nW7NQwr066mjDZ-UjRXuLpeWBf8y9Vt5G7CoxMchoA,42,33,Brooks,RM480471821,1.45,OUT,635,,,,,,,,,,,,
583c5491a13a8,RMIatTXwithRMS,,,,,,,,,,,eyJ0eXAiOiJKV1QiLCJhbGciOiJIUzI1NiJ9.eyJpc3MiOiI1ODBmOWY1NjYzZjM5MDAwOTM2ZTA3ZmUiLCJleHAiOm51bGx9.8nW7NQwr066mjDZ-UjRXuLpeWBf8y9Vt5G7CoxMchoA,,,,,,,,,,,,,3826 Katiana Dr,Laredo,TX,78046,2,2,False
583c548b1f76e,RMIatTXwithRMS,,,,,,,,,,,eyJ0eXAiOiJKV1QiLCJhbGciOiJIUzI1NiJ9.eyJpc3MiOiI1ODBmOWY1NjYzZjM5MDAwOTM2ZTA3ZmUiLCJleHAiOm51bGx9.8nW7NQwr066mjDZ-UjRXuLpeWBf8y9Vt5G7CoxMchoA,,,,,,,,,,,,,3826 Katiana Dr,Laredo,TX,78046,2,2,False
583c547f1bc82,RMIatTXwithRMS,,,,,,,,,,,eyJ0eXAiOiJKV1QiLCJhbGciOiJIUzI1NiJ9.eyJpc3MiOiI1ODBmOWY1NjYzZjM5MDAwOTM2ZTA3ZmUiLCJleHAiOm51bGx9.8nW7NQwr066mjDZ-UjRXuLpeWBf8y9Vt5G7CoxMchoA,,,,,,,,,,,,,3826 Katiana Dr,Laredo,TX,78046,2,2,False
583c5479edcbe,RMIatTXwithRMS,,,,,,,,,,,eyJ0eXAiOiJKV1QiLCJhbGciOiJIUzI1NiJ9.eyJpc3MiOiI1ODBmOWY1NjYzZjM5MDAwOTM2ZTA3ZmUiLCJleHAiOm51bGx9.8nW7NQwr066mjDZ-UjRXuLpeWBf8y9Vt5G7CoxMchoA,,,,,,,,,,,,,3826 Katiana Dr,Laredo,TX,78046,2,2,False
583c54746bd08,RMIatTXwithRMS,,,,,,,,,,,eyJ0eXAiOiJKV1QiLCJhbGciOiJIUzI1NiJ9.eyJpc3MiOiI1ODBmOWY1NjYzZjM5MDAwOTM2ZTA3ZmUiLCJleHAiOm51bGx9.8nW7NQwr066mjDZ-UjRXuLpeWBf8y9Vt5G7CoxMchoA,,,,,,,,,,,,,3826 Katiana Dr,Laredo,TX,78046,2,2,False
583c546e6e977,RMIatTXwithRMS,,,,,,,,,,,eyJ0eXAiOiJKV1QiLCJhbGciOiJIUzI1NiJ9.eyJpc3MiOiI1ODBmOWY1NjYzZjM5MDAwOTM2ZTA3ZmUiLCJleHAiOm51bGx9.8nW7NQwr066mjDZ-UjRXuLpeWBf8y9Vt5G7CoxMchoA,,,,,,,,,,,,,3826 Katiana,Laredo,TX,78046,2,2,False
583c5456c3ae5,RMIatTXwithRMS,,,,,,,,,,,eyJ0eXAiOiJKV1QiLCJhbGciOiJIUzI1NiJ9.eyJpc3MiOiI1ODBmOWY1NjYzZjM5MDAwOTM2ZTA3ZmUiLCJleHAiOm51bGx9.8nW7NQwr066mjDZ-UjRXuLpeWBf8y9Vt5G7CoxMchoA,,,,,,,,,,,,,3826 Katiana Dr,Laredo,TX,78046,2,2,False
583c544c6f8d4,RMIatTXwithRMS,,,,,,,,,,,eyJ0eXAiOiJKV1QiLCJhbGciOiJIUzI1NiJ9.eyJpc3MiOiI1ODBmOWY1NjYzZjM5MDAwOTM2ZTA3ZmUiLCJleHAiOm51bGx9.8nW7NQwr066mjDZ-UjRXuLpeWBf8y9Vt5G7CoxMchoA,,,,,,,,,,,,,3826 Katiana Dr,Laredo,TX,78046,2,2,False
583c5440c76a8,RMIatTXwithRMS,,,,,,,,,,,eyJ0eXAiOiJKV1QiLCJhbGciOiJIUzI1NiJ9.eyJpc3MiOiI1ODBmOWY1NjYzZjM5MDAwOTM2ZTA3ZmUiLCJleHAiOm51bGx9.8nW7NQwr066mjDZ-UjRXuLpeWBf8y9Vt5G7CoxMchoA,,,,,,,,,,,,,3826 Katiana Dr,Laredo,TX,78046,2,2,False
583c542c61a17,RMIatTXwithRMS,,,,,,,,,,,eyJ0eXAiOiJKV1QiLCJhbGciOiJIUzI1NiJ9.eyJpc3MiOiI1ODBmOWY1NjYzZjM5MDAwOTM2ZTA3ZmUiLCJleHAiOm51bGx9.8nW7NQwr066mjDZ-UjRXuLpeWBf8y9Vt5G7CoxMchoA,,,,,,,,,,,,,3826 KATIANA DR,LAREDO,TX,78046,2,2,False
583c53c275921,RMIatTXwithRMS,16335 CLEARCREST DR,HOUSTON,TX,77059,16335 CLEARCREST DR,HOUSTON,TX,77059,-95.108259,29.588737,eyJ0eXAiOiJKV1QiLCJhbGciOiJIUzI1NiJ9.eyJpc3MiOiI1ODBmOWY1NjYzZjM5MDAwOTM2ZTA3ZmUiLCJleHAiOm51bGx9.8nW7NQwr066mjDZ-UjRXuLpeWBf8y9Vt5G7CoxMchoA,5.9,5.9,Harris,RM482010310,1.69,OUT,5487,1977,2122,3,1,1,,,,,,,
583c53a3ddbec,RMIatTXwithRMS,2784 BAY SHORE LN,GRAND PRAIRIE,TX,75054,2784 BAY SHORE LN,GRAND PRAIRIE,TX,75054,-97.048567,32.598773,eyJ0eXAiOiJKV1QiLCJhbGciOiJIUzI1NiJ9.eyJpc3MiOiI1ODBmOWY1NjYzZjM5MDAwOTM2ZTA3ZmUiLCJleHAiOm51bGx9.8nW7NQwr066mjDZ-UjRXuLpeWBf8y9Vt5G7CoxMchoA,120.0,120.0,Tarrant,RM484391075,3.24,OUT,2489,2008,2899,3,,,,,,,,,
583c53a0a8838,RMIatTXwithRMS,2625 Upas Ave,McAllen,TX,78501,2625 UPAS AVE,MCALLEN,TX,78501,-98.247119,26.225323,eyJ0eXAiOiJKV1QiLCJhbGciOiJIUzI1NiJ9.eyJpc3MiOiI1ODBmOWY1NjYzZjM5MDAwOTM2ZTA3ZmUiLCJleHAiOm51bGx9.8nW7NQwr066mjDZ-UjRXuLpeWBf8y9Vt5G7CoxMchoA,51,51,Hidalgo,RM482150100,1.42,OUT,8922,1998,1188,2,1,1,,,,,,,
583c537842f80,RMIatTXwithRMS,20614 Crescent Arbor Ln,Spring,TX,77379,20614 CRESCENT ARBOR LN,SPRING,TX,77379,-95.530376,30.062399,eyJ0eXAiOiJKV1QiLCJhbGciOiJIUzI1NiJ9.eyJpc3MiOiI1ODBmOWY1NjYzZjM5MDAwOTM2ZTA3ZmUiLCJleHAiOm51bGx9.8nW7NQwr066mjDZ-UjRXuLpeWBf8y9Vt5G7CoxMchoA,43,36,Harris,RM482010410,3.07,OUT,1190,2004,4034,4,1,1,,,,,,,
583c53767efac,RMIatTXwithRMS,2317 Eigel St Unit E,Houston,TX,77007,2317 EAGLE ST UNIT E,HOUSTON,TX,77004,-95.370558,29.728574,eyJ0eXAiOiJKV1QiLCJhbGciOiJIUzI1NiJ9.eyJpc3MiOiI1ODBmOWY1NjYzZjM5MDAwOTM2ZTA3ZmUiLCJleHAiOm51bGx9.8nW7NQwr066mjDZ-UjRXuLpeWBf8y9Vt5G7CoxMchoA,22.2,18.3,Harris,RM482010310,1.05,OUT,31032,,,,,,,,,,,,
583c50cc577d3,RMIatTXwithRMS,3702 liles ln,humble,TX,77396,3702 LILES LN,HUMBLE,TX,77396,-95.214506,29.965848,eyJ0eXAiOiJKV1QiLCJhbGciOiJIUzI1NiJ9.eyJpc3MiOiI1ODBmOWY1NjYzZjM5MDAwOTM2ZTA3ZmUiLCJleHAiOm51bGx9.8nW7NQwr066mjDZ-UjRXuLpeWBf8y9Vt5G7CoxMchoA,24.3,17.9,Harris,RM482010030,1.26,OUT,1348,1995,2572,3,1,1,,,,,,,
583c4fbc328e5,RMIatTXwithRMS,7314 Leens Lodge Ln,Humble,TX,77346,7314 LEENS LODGE LN,HUMBLE,TX,77346,-95.166549,29.986736,eyJ0eXAiOiJKV1QiLCJhbGciOiJIUzI1NiJ9.eyJpc3MiOiI1ODBmOWY1NjYzZjM5MDAwOTM2ZTA3ZmUiLCJleHAiOm51bGx9.8nW7NQwr066mjDZ-UjRXuLpeWBf8y9Vt5G7CoxMchoA,23.9,18.1,Harris,RM482010030,1.53,OUT,3062,2001,2164,2,,,,,,,,,
583c4f531326d,RMIatTXwithRMS,5610 oban terrace,sugarland,TX,77479,Oban St,Houston,TX,77085,-95.4779510498047,29.6153793334961,eyJ0eXAiOiJKV1QiLCJhbGciOiJIUzI1NiJ9.eyJpc3MiOiI1ODBmOWY1NjYzZjM5MDAwOTM2ZTA3ZmUiLCJleHAiOm51bGx9.8nW7NQwr066mjDZ-UjRXuLpeWBf8y9Vt5G7CoxMchoA,28,27,Harris,RM482010310,1.58,OUT,9954,1976,4000,,,,,,,,,,
583c4c1c252a5,RMIatTXwithRMS,2938 Santa Sofia St,Corpus Christi,TX,78415,2938 SANTA SOFIA ST,CORPUS CHRISTI,TX,78415,-97.422993,27.723916,eyJ0eXAiOiJKV1QiLCJhbGciOiJIUzI1NiJ9.eyJpc3MiOiI1ODBmOWY1NjYzZjM5MDAwOTM2ZTA3ZmUiLCJleHAiOm51bGx9.8nW7NQwr066mjDZ-UjRXuLpeWBf8y9Vt5G7CoxMchoA,3.5,3.5,Nueces,RM483552350,1.53,,4629,2007,1316,,,,,,,,,,
583c4b5f18992,RMIatTXwithRMS,15014 Falling Creek Dr,Houston,TX,77068,15014 FALLING CREEK DR,HOUSTON,TX,77068,-95.491138,30.00074,eyJ0eXAiOiJKV1QiLCJhbGciOiJIUzI1NiJ9.eyJpc3MiOiI1ODBmOWY1NjYzZjM5MDAwOTM2ZTA3ZmUiLCJleHAiOm51bGx9.8nW7NQwr066mjDZ-UjRXuLpeWBf8y9Vt5G7CoxMchoA,38,32,Harris,RM482010410,0.71,OUT,17294,1972,2588,3,1,1,,,,,,,
583c49cd72481,RMIatTXwithRMS,20809 Sheridan Heights Ln,Porter,TX,77365,20809 SHERIDAN HEIGHTS LN,PORTER,TX,77365,-95.25824,30.078841,eyJ0eXAiOiJKV1QiLCJhbGciOiJIUzI1NiJ9.eyJpc3MiOiI1ODBmOWY1NjYzZjM5MDAwOTM2ZTA3ZmUiLCJleHAiOm51bGx9.8nW7NQwr066mjDZ-UjRXuLpeWBf8y9Vt5G7CoxMchoA,33,27,Montgomery,RM483390180,3.36,OUT,1608,2008,2498,3,1,1,,,,,,,
583c4959ba270,RMIatTXwithRMS,17606 Tahoe Pines Ln,Humble,TX,77346,17606 TAHOE PINES LN,HUMBLE,TX,77346,-95.196283,29.974667,eyJ0eXAiOiJKV1QiLCJhbGciOiJIUzI1NiJ9.eyJpc3MiOiI1ODBmOWY1NjYzZjM5MDAwOTM2ZTA3ZmUiLCJleHAiOm51bGx9.8nW7NQwr066mjDZ-UjRXuLpeWBf8y9Vt5G7CoxMchoA,24.1,18,Harris,RM482010030,2.57,OUT,4235,2006,3290,4,1,1,,,,,,,
583c493001609,RMIatTXwithRMS,709 Laurel Ave,McAllen,TX,78501,709 LAUREL AVE,MCALLEN,TX,78501,-98.225778,26.213617,eyJ0eXAiOiJKV1QiLCJhbGciOiJIUzI1NiJ9.eyJpc3MiOiI1ODBmOWY1NjYzZjM5MDAwOTM2ZTA3ZmUiLCJleHAiOm51bGx9.8nW7NQwr066mjDZ-UjRXuLpeWBf8y9Vt5G7CoxMchoA,50,50,Hidalgo,RM482150100,1.48,OUT,15766,1974,1434,1,,,,,,,,,
583c48677c012,RMIatTXwithRMS,5918 chatham,missouri city,TX,77459,5918 CHATHAM CV,MISSOURI CITY,TX,77459,-95.557163,29.530527,eyJ0eXAiOiJKV1QiLCJhbGciOiJIUzI1NiJ9.eyJpc3MiOiI1ODBmOWY1NjYzZjM5MDAwOTM2ZTA3ZmUiLCJleHAiOm51bGx9.8nW7NQwr066mjDZ-UjRXuLpeWBf8y9Vt5G7CoxMchoA,33,32,Fort Bend,RM481570370,1.94,OUT,3581,2010,2905,3,,,,,,,,,
583c4634ab7bc,RMIatTXwithRMS,123314 Wimbledon Oaks Dr.,Houston,TX,77065,123314 WIMBLEDON OAKS DR,HOUSTON,TX,77065,-95.628386,29.927452,eyJ0eXAiOiJKV1QiLCJhbGciOiJIUzI1NiJ9.eyJpc3MiOiI1ODBmOWY1NjYzZjM5MDAwOTM2ZTA3ZmUiLCJleHAiOm51bGx9.8nW7NQwr066mjDZ-UjRXuLpeWBf8y9Vt5G7CoxMchoA,42,37,Harris,RM482010310,3.17,OUT,19123,,,,,,,,,,,,
583c44434ee47,RMIatTXwithRMS,2513 Hardin Road,Baytown,TX,77521,2513 HARDIN RD,BAYTOWN,TX,77521,-94.939541,29.771207,eyJ0eXAiOiJKV1QiLCJhbGciOiJIUzI1NiJ9.eyJpc3MiOiI1ODBmOWY1NjYzZjM5MDAwOTM2ZTA3ZmUiLCJleHAiOm51bGx9.8nW7NQwr066mjDZ-UjRXuLpeWBf8y9Vt5G7CoxMchoA,6.4,5,Harris,RM482010050,1.04,OUT,8160,1975,1933,2,1,1,,,,,,,
583c425b9ac4c,RMIatTXwithRMS,7923 high knoll,houston,TX,77095,7923 HIGH KNOLL LN,HOUSTON,TX,77095,-95.683153,29.894206,eyJ0eXAiOiJKV1QiLCJhbGciOiJIUzI1NiJ9.eyJpc3MiOiI1ODBmOWY1NjYzZjM5MDAwOTM2ZTA3ZmUiLCJleHAiOm51bGx9.8nW7NQwr066mjDZ-UjRXuLpeWBf8y9Vt5G7CoxMchoA,45,39,Harris,RM482010310,1.20,OUT,16563,1995,2570,2,,,,,,,,,
583c409d88203,RMIatTXwithRMS,21 Ave C,BLESSING,TX,77419,21 AVENUE C,BLESSING,TX,77419,-96.218439,28.868348,eyJ0eXAiOiJKV1QiLCJhbGciOiJIUzI1NiJ9.eyJpc3MiOiI1ODBmOWY1NjYzZjM5MDAwOTM2ZTA3ZmUiLCJleHAiOm51bGx9.8nW7NQwr066mjDZ-UjRXuLpeWBf8y9Vt5G7CoxMchoA,11.7,9.8,Matagorda,RM483212180,0.44,,555,,2021,2,,,,,,,,,
583c3d9b7292e,RMIatTXwithRMS,28514 Rolling RIdge,Katy,TX,77494,28514 ROLLING RIDGE DR,KATY,TX,77494,-95.838806,29.716637,eyJ0eXAiOiJKV1QiLCJhbGciOiJIUzI1NiJ9.eyJpc3MiOiI1ODBmOWY1NjYzZjM5MDAwOTM2ZTA3ZmUiLCJleHAiOm51bGx9.8nW7NQwr066mjDZ-UjRXuLpeWBf8y9Vt5G7CoxMchoA,51,47,Fort Bend,RM481570300,1.83,OUT,9441,2012,3804,4,,,,,,,,,
583c3c3b9ad60,RMIatTXwithRMS,15222 SKY BROOK LN,HOUSTON,TX,77044,15222 SKY BROOK LN,HOUSTON,TX,77044,-95.174868,29.923436,eyJ0eXAiOiJKV1QiLCJhbGciOiJIUzI1NiJ9.eyJpc3MiOiI1ODBmOWY1NjYzZjM5MDAwOTM2ZTA3ZmUiLCJleHAiOm51bGx9.8nW7NQwr066mjDZ-UjRXuLpeWBf8y9Vt5G7CoxMchoA,20.5,14.2,Harris,RM482010310,0.95,OUT,2465,2004,2104,2,,,,,,,,,
583b69a14d2d5,RMIatTXwithRMS,40302 Otero Rd,Magnolia,TX,77354,40302 OTERO RD,MAGNOLIA,TX,77354,-95.606002,30.234135,eyJ0eXAiOiJKV1QiLCJhbGciOiJIUzI1NiJ9.eyJpc3MiOiI1ODBmOWY1NjYzZjM5MDAwOTM2ZTA3ZmUiLCJleHAiOm51bGx9.8nW7NQwr066mjDZ-UjRXuLpeWBf8y9Vt5G7CoxMchoA,54,48,Montgomery,RM483390380,4.02,OUT,1658,1993,2069,3,1,1,,,,,,,
583b0f1c25936,RMIatTXwithRMS,3719 Elmwood Dale Dr,Fresno,TX,77545,3719 ELMWOOD DALE DR,FRESNO,TX,77545,-95.484825,29.533193,eyJ0eXAiOiJKV1QiLCJhbGciOiJIUzI1NiJ9.eyJpc3MiOiI1ODBmOWY1NjYzZjM5MDAwOTM2ZTA3ZmUiLCJleHAiOm51bGx9.8nW7NQwr066mjDZ-UjRXuLpeWBf8y9Vt5G7CoxMchoA,29,29,Fort Bend,RM481570160,2.58,OUT,3716,2004,1914,2,,,,,,,,,
583af4d5d7953,RMIatTXwithRMS,20006 MAGNOLIA BEND DR,Humble,TX,77346,20006 MAGNOLIA BEND DR,HUMBLE,TX,77346,-95.150092,30.00928,eyJ0eXAiOiJKV1QiLCJhbGciOiJIUzI1NiJ9.eyJpc3MiOiI1ODBmOWY1NjYzZjM5MDAwOTM2ZTA3ZmUiLCJleHAiOm51bGx9.8nW7NQwr066mjDZ-UjRXuLpeWBf8y9Vt5G7CoxMchoA,25,19.2,Harris,RM482010030,1.75,OUT,5701,1983,2780,3,1,1,,,,,,,
583aee11bf73b,RMIatTXwithRMS,8114 PINE FALLS DR,Houston,TX,77095,8114 PINE FALLS DR,HOUSTON,TX,77095,-95.642605,29.898744,eyJ0eXAiOiJKV1QiLCJhbGciOiJIUzI1NiJ9.eyJpc3MiOiI1ODBmOWY1NjYzZjM5MDAwOTM2ZTA3ZmUiLCJleHAiOm51bGx9.8nW7NQwr066mjDZ-UjRXuLpeWBf8y9Vt5G7CoxMchoA,42,37,Harris,RM482010310,0.56,OUT,16753,1984,1773,3,1,1,,,,,,,
583a0401300bb,RMIatTXwithRMS,1619 County Road 612,Dayton,TX,77535,1619 COUNTY ROAD 612,DAYTON,TX,77535,-95.011964,30.021986,eyJ0eXAiOiJKV1QiLCJhbGciOiJIUzI1NiJ9.eyJpc3MiOiI1ODBmOWY1NjYzZjM5MDAwOTM2ZTA3ZmUiLCJleHAiOm51bGx9.8nW7NQwr066mjDZ-UjRXuLpeWBf8y9Vt5G7CoxMchoA,21.9,19,Liberty,RM482911900,6.94,OUT,4383,1996,2729,3,,,,,,,,,
5839f702716c0,RMIatTXwithRMS,9314 Bristlebrook drive,houston,TX,77083,9314 BRISTLEBROOK DR,HOUSTON,TX,77083,-95.63206,29.678921,eyJ0eXAiOiJKV1QiLCJhbGciOiJIUzI1NiJ9.eyJpc3MiOiI1ODBmOWY1NjYzZjM5MDAwOTM2ZTA3ZmUiLCJleHAiOm51bGx9.8nW7NQwr066mjDZ-UjRXuLpeWBf8y9Vt5G7CoxMchoA,38,35,Fort Bend,RM481570250,0.85,OUT,11051,1986,1663,2,,,,,,,,,
5839ecf92d285,RMIatTXwithRMS,6934 Stoneyvale Drive,houston,TX,77083,6934 STONEYVALE DR,HOUSTON,TX,77083,-95.678964,29.702807,eyJ0eXAiOiJKV1QiLCJhbGciOiJIUzI1NiJ9.eyJpc3MiOiI1ODBmOWY1NjYzZjM5MDAwOTM2ZTA3ZmUiLCJleHAiOm51bGx9.8nW7NQwr066mjDZ-UjRXuLpeWBf8y9Vt5G7CoxMchoA,41,37,Fort Bend,RM481570350,1.04,OUT,4141,2006,1962,2,,,,,,,,,
5839ec06a6c0d,RMIatTXwithRMS,3206 Carmel Valley Dr,Missouri City,TX,77459,3206 CARMEL VALLEY DR,MISSOURI CITY,TX,77459,-95.559469,29.573911,eyJ0eXAiOiJKV1QiLCJhbGciOiJIUzI1NiJ9.eyJpc3MiOiI1ODBmOWY1NjYzZjM5MDAwOTM2ZTA3ZmUiLCJleHAiOm51bGx9.8nW7NQwr066mjDZ-UjRXuLpeWBf8y9Vt5G7CoxMchoA,33,32,Fort Bend,RM481570360,1.22,OUT,12968,1985,2222,2,,,,,,,,,
5839ebea346a6,RMIatTXwithRMS,5521 Kiam St,Houston,TX,77007,5521 KIAM ST,HOUSTON,TX,77007,-95.421062,29.780938,eyJ0eXAiOiJKV1QiLCJhbGciOiJIUzI1NiJ9.eyJpc3MiOiI1ODBmOWY1NjYzZjM5MDAwOTM2ZTA3ZmUiLCJleHAiOm51bGx9.8nW7NQwr066mjDZ-UjRXuLpeWBf8y9Vt5G7CoxMchoA,27,21.5,Harris,RM482010310,0.29,OUT,45180,,,,,,,,,,,,
5839dd7d3e8d9,RMIatTXwithRMS,12527 Newbrook Drive Unit 301,Houston,TX,77072,12527 NEWBROOK DR UNIT 301,HOUSTON,TX,77072,-95.602176,29.684277,eyJ0eXAiOiJKV1QiLCJhbGciOiJIUzI1NiJ9.eyJpc3MiOiI1ODBmOWY1NjYzZjM5MDAwOTM2ZTA3ZmUiLCJleHAiOm51bGx9.8nW7NQwr066mjDZ-UjRXuLpeWBf8y9Vt5G7CoxMchoA,36,33,Harris,RM482010310,1.40,OUT,20035,,,,,,,,,,,,
5839d949adf51,RMIatTXwithRMS,12527 Newbrook Dr Unit 301,Houston,TX,77072,12527 NEWBROOK DR UNIT 301,HOUSTON,TX,77072,-95.602176,29.684277,eyJ0eXAiOiJKV1QiLCJhbGciOiJIUzI1NiJ9.eyJpc3MiOiI1ODBmOWY1NjYzZjM5MDAwOTM2ZTA3ZmUiLCJleHAiOm51bGx9.8nW7NQwr066mjDZ-UjRXuLpeWBf8y9Vt5G7CoxMchoA,36,33,Harris,RM482010310,1.40,OUT,20035,,,,,,,,,,,,
5839d593d4ebc,RMIatTXwithRMS,12527 New Brook Drive unit 301,HOUSTON,TX,77072,12527 NEWBROOK DR UNIT 301,HOUSTON,TX,77072,-95.602176,29.684277,eyJ0eXAiOiJKV1QiLCJhbGciOiJIUzI1NiJ9.eyJpc3MiOiI1ODBmOWY1NjYzZjM5MDAwOTM2ZTA3ZmUiLCJleHAiOm51bGx9.8nW7NQwr066mjDZ-UjRXuLpeWBf8y9Vt5G7CoxMchoA,36,33,Harris,RM482010310,1.40,OUT,20035,,,,,,,,,,,,
5839cb8c69b98,RMIatTXwithRMS,906 Arden Oaks Dr,Sugar Land,TX,77479,906 ARDEN OAKS DR,SUGAR LAND,TX,77479,-95.650851,29.598173,eyJ0eXAiOiJKV1QiLCJhbGciOiJIUzI1NiJ9.eyJpc3MiOiI1ODBmOWY1NjYzZjM5MDAwOTM2ZTA3ZmUiLCJleHAiOm51bGx9.8nW7NQwr066mjDZ-UjRXuLpeWBf8y9Vt5G7CoxMchoA,39,37,Fort Bend,RM481570130,1.20,OUT,5093,2012,4661,3,,,,,,,,,
58398eeb3129d,RMIatTXwithRMS,2315 cheshire 77018,houston,TX,77018,2315 CHESHIRE LN # 77018,HOUSTON,TX,77018,-95.453125,29.828908,eyJ0eXAiOiJKV1QiLCJhbGciOiJIUzI1NiJ9.eyJpc3MiOiI1ODBmOWY1NjYzZjM5MDAwOTM2ZTA3ZmUiLCJleHAiOm51bGx9.8nW7NQwr066mjDZ-UjRXuLpeWBf8y9Vt5G7CoxMchoA,30,23.9,Harris,RM482010310,0.46,OUT,39306,,,,,,,,,,,,
5838cc024f33b,RMIatTXwithRMS,1039 Sussex,Pearland,TX,77584,1039 SUSSEX TRL,PEARLAND,TX,77584,-95.371733,29.573348,eyJ0eXAiOiJKV1QiLCJhbGciOiJIUzI1NiJ9.eyJpc3MiOiI1ODBmOWY1NjYzZjM5MDAwOTM2ZTA3ZmUiLCJleHAiOm51bGx9.8nW7NQwr066mjDZ-UjRXuLpeWBf8y9Vt5G7CoxMchoA,21.3,21.2,Brazoria,RM480390530,2.17,,6884,1999,1910,3,1,1,,,,,,,
5838c0c8ce373,RMIatTXwithRMS,129 Bastrop,Angleton,TX,77515,129 BASTROP ST,ANGLETON,TX,77515,-95.408858,29.179087,eyJ0eXAiOiJKV1QiLCJhbGciOiJIUzI1NiJ9.eyJpc3MiOiI1ODBmOWY1NjYzZjM5MDAwOTM2ZTA3ZmUiLCJleHAiOm51bGx9.8nW7NQwr066mjDZ-UjRXuLpeWBf8y9Vt5G7CoxMchoA,13.9,13.2,Brazoria,RM480390260,2.08,,1243,1979,1795,2,,,,,,,,,
5838b9c8b93ef,RMIatTXwithRMS,4595 Cleveland St,Beaumont,TX,77703,4595 CLEVELAND ST,BEAUMONT,TX,77703,-94.122258,30.122381,eyJ0eXAiOiJKV1QiLCJhbGciOiJIUzI1NiJ9.eyJpc3MiOiI1ODBmOWY1NjYzZjM5MDAwOTM2ZTA3ZmUiLCJleHAiOm51bGx9.8nW7NQwr066mjDZ-UjRXuLpeWBf8y9Vt5G7CoxMchoA,32,17.9,Jefferson,RM482450010,1.36,,2043,2010,1420,,,,,,,,,,
5838b71b7dbda,RMIatTXwithRMS,17215 desert maize ln,houston,TX,77095,17215 DESERT MAIZE LN,HOUSTON,TX,77095,-95.678848,29.922329,eyJ0eXAiOiJKV1QiLCJhbGciOiJIUzI1NiJ9.eyJpc3MiOiI1ODBmOWY1NjYzZjM5MDAwOTM2ZTA3ZmUiLCJleHAiOm51bGx9.8nW7NQwr066mjDZ-UjRXuLpeWBf8y9Vt5G7CoxMchoA,45,39,Harris,RM482010310,2.99,OUT,6779,2001,2728,3,1,1,,,,,,,
5838acb87378c,RMIatTXwithRMS,2339 Athens St,BROWNSVILLE,TX,78520,2339 ATHENS ST,BROWNSVILLE,TX,78520,-97.531009,25.963397,eyJ0eXAiOiJKV1QiLCJhbGciOiJIUzI1NiJ9.eyJpc3MiOiI1ODBmOWY1NjYzZjM5MDAwOTM2ZTA3ZmUiLCJleHAiOm51bGx9.8nW7NQwr066mjDZ-UjRXuLpeWBf8y9Vt5G7CoxMchoA,17.4,13.3,Cameron,RM480610800,1.82,,1278,2008,1509,2,,,,,,,,,
5838abf65dcfd,RMIatTXwithRMS,2527 SUNRISE HARBOR,PEARLAND,TX,77584,2527 SUNRISE HARBOR LN,PEARLAND,TX,77584,-95.362293,29.562723,eyJ0eXAiOiJKV1QiLCJhbGciOiJIUzI1NiJ9.eyJpc3MiOiI1ODBmOWY1NjYzZjM5MDAwOTM2ZTA3ZmUiLCJleHAiOm51bGx9.8nW7NQwr066mjDZ-UjRXuLpeWBf8y9Vt5G7CoxMchoA,20.7,20.7,Brazoria,RM480390530,1.31,,2157,2004,3561,,,,,,,,,,
5838a975dab9b,RMIatTXwithRMS,2606 Falcon Knoll Ln,Katy,TX,77494,2606 FALCON KNOLL LN,KATY,TX,77494,-95.785508,29.747045,eyJ0eXAiOiJKV1QiLCJhbGciOiJIUzI1NiJ9.eyJpc3MiOiI1ODBmOWY1NjYzZjM5MDAwOTM2ZTA3ZmUiLCJleHAiOm51bGx9.8nW7NQwr066mjDZ-UjRXuLpeWBf8y9Vt5G7CoxMchoA,48,44,Fort Bend,RM481570220,0.75,OUT,16398,2003,2530,2,,,,,,,,,
5838975cbae32,RMIatTXwithRMS,2400 Jessica Dr,San Juan,TX,78596,2400 Jessica Dr,San Juan,TX,78589,-98.1553726196289,26.1660137176514,eyJ0eXAiOiJKV1QiLCJhbGciOiJIUzI1NiJ9.eyJpc3MiOiI1ODBmOWY1NjYzZjM5MDAwOTM2ZTA3ZmUiLCJleHAiOm51bGx9.8nW7NQwr066mjDZ-UjRXuLpeWBf8y9Vt5G7CoxMchoA,47,47,Hidalgo,RM482150190,1.77,OUT,218,2012,2277,2,,,,,,,,,
58388dd39bf39,RMIatTXwithRMS,3207 elmcrest dr,houston,TX,77088,3207 ELMCREST DR,HOUSTON,TX,77088,-95.453413,29.869838,eyJ0eXAiOiJKV1QiLCJhbGciOiJIUzI1NiJ9.eyJpc3MiOiI1ODBmOWY1NjYzZjM5MDAwOTM2ZTA3ZmUiLCJleHAiOm51bGx9.8nW7NQwr066mjDZ-UjRXuLpeWBf8y9Vt5G7CoxMchoA,31,25,Harris,RM482010310,2.15,OUT,41000,1991,2901,3,1,1,,,,,,,
58388ad2a0399,RMIatTXwithRMS,13910 BONNETBRIAR,SUGAR LAND,TX,77498,13910 BONNETBRIAR LN,SUGAR LAND,TX,77498,-95.629314,29.673596,eyJ0eXAiOiJKV1QiLCJhbGciOiJIUzI1NiJ9.eyJpc3MiOiI1ODBmOWY1NjYzZjM5MDAwOTM2ZTA3ZmUiLCJleHAiOm51bGx9.8nW7NQwr066mjDZ-UjRXuLpeWBf8y9Vt5G7CoxMchoA,38,35,Fort Bend,RM481570250,0.30,OUT,11222,2005,1492,2,,,,,,,,,
5838872112c47,RMIatTXwithRMS,,,,,,,,,,,eyJ0eXAiOiJKV1QiLCJhbGciOiJIUzI1NiJ9.eyJpc3MiOiI1ODBmOWY1NjYzZjM5MDAwOTM2ZTA3ZmUiLCJleHAiOm51bGx9.8nW7NQwr066mjDZ-UjRXuLpeWBf8y9Vt5G7CoxMchoA,,,,,,,,,,,,,3413 Cowboy Nation Ct,Corpus Cristy,TX,78414,0,0,False
583882e2cf711,RMIatTXwithRMS,10818 GREEN ARBOR DR,HOUSTON,TX,77089,10818 GREEN ARBOR DR,HOUSTON,TX,77089,-95.22608,29.61756,eyJ0eXAiOiJKV1QiLCJhbGciOiJIUzI1NiJ9.eyJpc3MiOiI1ODBmOWY1NjYzZjM5MDAwOTM2ZTA3ZmUiLCJleHAiOm51bGx9.8nW7NQwr066mjDZ-UjRXuLpeWBf8y9Vt5G7CoxMchoA,12.8,11.9,Harris,RM482010310,1.52,OUT,11690,1970,1392,2,,,,,,,,,
5838814282d0e,RMIatTXwithRMS,11507 Dorrance Ln,Meadows Place,TX,77477,11507 DORRANCE LN,MEADOWS PLACE,TX,77477,-95.579724,29.65089,eyJ0eXAiOiJKV1QiLCJhbGciOiJIUzI1NiJ9.eyJpc3MiOiI1ODBmOWY1NjYzZjM5MDAwOTM2ZTA3ZmUiLCJleHAiOm51bGx9.8nW7NQwr066mjDZ-UjRXuLpeWBf8y9Vt5G7CoxMchoA,34,32,Fort Bend,RM481570060,1.01,OUT,19705,1969,1751,2,,,,,,,,,
58387ef98b7e3,RMIatTXwithRMS,422 Birch Hill Dr,SUGAR LAND,TX,77479,422 BIRCH HILL DR,SUGAR LAND,TX,77479,-95.664093,29.601754,eyJ0eXAiOiJKV1QiLCJhbGciOiJIUzI1NiJ9.eyJpc3MiOiI1ODBmOWY1NjYzZjM5MDAwOTM2ZTA3ZmUiLCJleHAiOm51bGx9.8nW7NQwr066mjDZ-UjRXuLpeWBf8y9Vt5G7CoxMchoA,40,38,Fort Bend,RM481570260,1.50,OUT,2219,1990,2647,2,,,,,,,,,
58387b4ea4697,RMIatTXwithRMS,4019 black creek ct,missouri city,TX,77459,4019 BLACK CREEK CT,MISSOURI CITY,TX,77459,-95.516995,29.512926,eyJ0eXAiOiJKV1QiLCJhbGciOiJIUzI1NiJ9.eyJpc3MiOiI1ODBmOWY1NjYzZjM5MDAwOTM2ZTA3ZmUiLCJleHAiOm51bGx9.8nW7NQwr066mjDZ-UjRXuLpeWBf8y9Vt5G7CoxMchoA,31,29,Fort Bend,RM481570360,2.36,OUT,2159,2003,2628,2,,,,,,,,,
58387af01f501,RMIatTXwithRMS,3830 Tennyson St,Houston,TX,77005,3830 TENNYSON ST,HOUSTON,TX,77005,-95.439187,29.71773,eyJ0eXAiOiJKV1QiLCJhbGciOiJIUzI1NiJ9.eyJpc3MiOiI1ODBmOWY1NjYzZjM5MDAwOTM2ZTA3ZmUiLCJleHAiOm51bGx9.8nW7NQwr066mjDZ-UjRXuLpeWBf8y9Vt5G7CoxMchoA,27,22.5,Harris,RM482010860,0.32,OUT,22239,1960,1286,2,1,1,,,,,,,
58387aa826df4,RMIatTXwithRMS,18822 Bene Vista Dr Houston,TX,TX,77084,18822 BUENA VISTA ST,HOUSTON,TX,77087,-95.283482,29.682728,eyJ0eXAiOiJKV1QiLCJhbGciOiJIUzI1NiJ9.eyJpc3MiOiI1ODBmOWY1NjYzZjM5MDAwOTM2ZTA3ZmUiLCJleHAiOm51bGx9.8nW7NQwr066mjDZ-UjRXuLpeWBf8y9Vt5G7CoxMchoA,16.5,13.6,Harris,RM482010310,1.34,OUT,24115,,,,,,,,,,,,
5838782dd7aa5,RMIatTXwithRMS,5407 WHISPERING CREEK WAY,HOUSTON,TX,77017,5407 WHISPERING CREEK WAY,HOUSTON,TX,77017,-95.241267,29.672009,eyJ0eXAiOiJKV1QiLCJhbGciOiJIUzI1NiJ9.eyJpc3MiOiI1ODBmOWY1NjYzZjM5MDAwOTM2ZTA3ZmUiLCJleHAiOm51bGx9.8nW7NQwr066mjDZ-UjRXuLpeWBf8y9Vt5G7CoxMchoA,13.9,11.3,Harris,RM482010310,0.60,OUT,26389,1960,3122,2,,,,,,,,,
58387696a0b13,RMIatTXwithRMS,420 Chapman,San Benito,TX,78586,420 CHAPMAN ST,SAN BENITO,TX,78586,-97.643829,26.124258,eyJ0eXAiOiJKV1QiLCJhbGciOiJIUzI1NiJ9.eyJpc3MiOiI1ODBmOWY1NjYzZjM5MDAwOTM2ZTA3ZmUiLCJleHAiOm51bGx9.8nW7NQwr066mjDZ-UjRXuLpeWBf8y9Vt5G7CoxMchoA,20.4,17.9,Cameron,RM480610990,0.30,,1642,2015,1044,,,,,,,,,,
58386f8bb3fb9,RMIatTXwithRMS,8106 Cross Trail Dr,Sugar Land,TX,77479,8106 CROSS TRAIL DR,SUGAR LAND,TX,77479,-95.667182,29.544134,eyJ0eXAiOiJKV1QiLCJhbGciOiJIUzI1NiJ9.eyJpc3MiOiI1ODBmOWY1NjYzZjM5MDAwOTM2ZTA3ZmUiLCJleHAiOm51bGx9.8nW7NQwr066mjDZ-UjRXuLpeWBf8y9Vt5G7CoxMchoA,39,37,Fort Bend,RM481570260,2.77,OUT,1248,2001,2678,2,,,,,,,,,
58386b3e056fe,RMIatTXwithRMS,16119 April Ridge Dr,Houston,TX,77083,16119 APRIL RIDGE DR,HOUSTON,TX,77083,-95.671413,29.683676,eyJ0eXAiOiJKV1QiLCJhbGciOiJIUzI1NiJ9.eyJpc3MiOiI1ODBmOWY1NjYzZjM5MDAwOTM2ZTA3ZmUiLCJleHAiOm51bGx9.8nW7NQwr066mjDZ-UjRXuLpeWBf8y9Vt5G7CoxMchoA,40,37,Fort Bend,RM481570350,1.56,OUT,3735,1996,2377,2,,,,,,,,,
58386a8a18b95,RMIatTXwithRMS,3231 Antelope Hills Dr,Missouri City,TX,77459,3231 ANTELOPE HILLS DR,MISSOURI CITY,TX,77459,-95.507205,29.543147,eyJ0eXAiOiJKV1QiLCJhbGciOiJIUzI1NiJ9.eyJpc3MiOiI1ODBmOWY1NjYzZjM5MDAwOTM2ZTA3ZmUiLCJleHAiOm51bGx9.8nW7NQwr066mjDZ-UjRXuLpeWBf8y9Vt5G7CoxMchoA,30,30,Fort Bend,RM481570360,2.26,OUT,2008,2002,2693,2,,,,,,,,,
58386a4091272,RMIatTXwithRMS,14918 BEECHURST DR,HOUSTON,TX,77062,14918 BEECHURST DR,HOUSTON,TX,77062,-95.132618,29.580767,eyJ0eXAiOiJKV1QiLCJhbGciOiJIUzI1NiJ9.eyJpc3MiOiI1ODBmOWY1NjYzZjM5MDAwOTM2ZTA3ZmUiLCJleHAiOm51bGx9.8nW7NQwr066mjDZ-UjRXuLpeWBf8y9Vt5G7CoxMchoA,7,7,Harris,RM482010310,0.44,OUT,8001,1978,2187,3,1,1,,,,,,,
583868d4e8fbd,RMIatTXwithRMS,19326 Morning News Ln,Richmond,TX,77407,19326 MORNING NEWS LN,RICHMOND,TX,77407,-95.721689,29.70227,eyJ0eXAiOiJKV1QiLCJhbGciOiJIUzI1NiJ9.eyJpc3MiOiI1ODBmOWY1NjYzZjM5MDAwOTM2ZTA3ZmUiLCJleHAiOm51bGx9.8nW7NQwr066mjDZ-UjRXuLpeWBf8y9Vt5G7CoxMchoA,43,40,Fort Bend,RM481570350,1.94,OUT,1435,2008,2846,2,,,,,,,,,
583868b6e6a5c,RMIatTXwithRMS,,,,,,,,,,,eyJ0eXAiOiJKV1QiLCJhbGciOiJIUzI1NiJ9.eyJpc3MiOiI1ODBmOWY1NjYzZjM5MDAwOTM2ZTA3ZmUiLCJleHAiOm51bGx9.8nW7NQwr066mjDZ-UjRXuLpeWBf8y9Vt5G7CoxMchoA,,,,,,,,,,,,,19326 Morning News Ln,Richmond,TX,77407,0,0,False
5838642aaa889,RMIatTXwithRMS,1519 Meadowfair Ct,Sugar Land,TX,77479,1519 MEADOWFAIR CT,SUGAR LAND,TX,77479,-95.634253,29.599428,eyJ0eXAiOiJKV1QiLCJhbGciOiJIUzI1NiJ9.eyJpc3MiOiI1ODBmOWY1NjYzZjM5MDAwOTM2ZTA3ZmUiLCJleHAiOm51bGx9.8nW7NQwr066mjDZ-UjRXuLpeWBf8y9Vt5G7CoxMchoA,38,36,Fort Bend,RM481570130,1.57,OUT,7074,,,,,,,,,,,,
58385d3907dc0,RMIatTXwithRMS,16106 CONGO LN,HOUSTON,TX,77040,16106 CONGO LN,HOUSTON,TX,77040,-95.564165,29.883472,eyJ0eXAiOiJKV1QiLCJhbGciOiJIUzI1NiJ9.eyJpc3MiOiI1ODBmOWY1NjYzZjM5MDAwOTM2ZTA3ZmUiLCJleHAiOm51bGx9.8nW7NQwr066mjDZ-UjRXuLpeWBf8y9Vt5G7CoxMchoA,38,32,Harris,RM482010370,0.52,OUT,15059,1976,2034,3,1,1,,,,,,,
583858cf873ad,RMIatTXwithRMS,336 N Rockisland St,Angleton,TX,77515,336 N ROCKISLAND ST,ANGLETON,TX,77515,-95.424617,29.167874,eyJ0eXAiOiJKV1QiLCJhbGciOiJIUzI1NiJ9.eyJpc3MiOiI1ODBmOWY1NjYzZjM5MDAwOTM2ZTA3ZmUiLCJleHAiOm51bGx9.8nW7NQwr066mjDZ-UjRXuLpeWBf8y9Vt5G7CoxMchoA,14.5,14.2,Brazoria,RM480390260,0.43,,3901,1900,2712,2,,,,,,,,,
583858694860e,RMIatTXwithRMS,10517 AMBURSEN ST,HOUSTON,TX,77034,10517 AMBURSEN ST,HOUSTON,TX,77034,-95.225829,29.637364,eyJ0eXAiOiJKV1QiLCJhbGciOiJIUzI1NiJ9.eyJpc3MiOiI1ODBmOWY1NjYzZjM5MDAwOTM2ZTA3ZmUiLCJleHAiOm51bGx9.8nW7NQwr066mjDZ-UjRXuLpeWBf8y9Vt5G7CoxMchoA,12.7,11.3,Harris,RM482010310,0.35,OUT,16990,1954,976,2,,,,,,,,,
583854cd867a9,RMIatTXwithRMS,727 Brushy Glen Dr,Houston,TX,77073,727 BRUSHY GLEN DR,HOUSTON,TX,77073,-95.405431,29.998753,eyJ0eXAiOiJKV1QiLCJhbGciOiJIUzI1NiJ9.eyJpc3MiOiI1ODBmOWY1NjYzZjM5MDAwOTM2ZTA3ZmUiLCJleHAiOm51bGx9.8nW7NQwr066mjDZ-UjRXuLpeWBf8y9Vt5G7CoxMchoA,34,28,Harris,RM482010010,0.76,OUT,12666,2001,1705,2,,,,,,,,,
5838439475b45,RMIatTXwithRMS,3265 Berzin Ct,Katy,TX,77493,3265 BERZIN CT,KATY,TX,77493,-95.809679,29.820465,eyJ0eXAiOiJKV1QiLCJhbGciOiJIUzI1NiJ9.eyJpc3MiOiI1ODBmOWY1NjYzZjM5MDAwOTM2ZTA3ZmUiLCJleHAiOm51bGx9.8nW7NQwr066mjDZ-UjRXuLpeWBf8y9Vt5G7CoxMchoA,50,46,Harris,RM482010390,3.36,OUT,2343,2000,2205,3,1,1,,,,,,,
5837aed98700b,RMIatTXwithRMS,810 Nashua Street,Houston,TX,77008,810 NASHUA ST,HOUSTON,TX,77008,-95.411977,29.78536,eyJ0eXAiOiJKV1QiLCJhbGciOiJIUzI1NiJ9.eyJpc3MiOiI1ODBmOWY1NjYzZjM5MDAwOTM2ZTA3ZmUiLCJleHAiOm51bGx9.8nW7NQwr066mjDZ-UjRXuLpeWBf8y9Vt5G7CoxMchoA,26,21,Harris,RM482010310,1.27,OUT,46935,1952,1200,1,,,,,,,,,
5836fbe11e023,RMIatTXwithRMS,2065 Glasshouse St.,Beaumont,TX,77703,2065 GLASSHOUSE ST,BEAUMONT,TX,77703,-94.118719,30.106885,eyJ0eXAiOiJKV1QiLCJhbGciOiJIUzI1NiJ9.eyJpc3MiOiI1ODBmOWY1NjYzZjM5MDAwOTM2ZTA3ZmUiLCJleHAiOm51bGx9.8nW7NQwr066mjDZ-UjRXuLpeWBf8y9Vt5G7CoxMchoA,31,17.3,Jefferson,RM482450010,1.55,,6285,1962,840,,,,,,,,,,
583644d04f43d,RMIatTXwithRMS,7907 Scenicside Lane,SPRING,TX,77379,7907 SCENICSIDE LN,SPRING,TX,77379,-95.542371,30.037962,eyJ0eXAiOiJKV1QiLCJhbGciOiJIUzI1NiJ9.eyJpc3MiOiI1ODBmOWY1NjYzZjM5MDAwOTM2ZTA3ZmUiLCJleHAiOm51bGx9.8nW7NQwr066mjDZ-UjRXuLpeWBf8y9Vt5G7CoxMchoA,42,36,Harris,RM482010410,0.82,OUT,4432,1982,2148,3,1,1,,,,,,,
5836321bd021c,RMIatTXwithRMS,10 Veneto Ln,Missouri City,TX,77459,10 VENETO LN,MISSOURI CITY,TX,77459,-95.555538,29.517641,eyJ0eXAiOiJKV1QiLCJhbGciOiJIUzI1NiJ9.eyJpc3MiOiI1ODBmOWY1NjYzZjM5MDAwOTM2ZTA3ZmUiLCJleHAiOm51bGx9.8nW7NQwr066mjDZ-UjRXuLpeWBf8y9Vt5G7CoxMchoA,33,31,Fort Bend,RM481570370,2.67,OUT,1876,2014,3060,3,,,,,,,,,
58362be8d8516,RMIatTXwithRMS,5603 Manor Forest Dr,Kingwood,TX,77339,5603 MANOR FOREST DR,KINGWOOD,TX,77339,-95.193479,30.082569,eyJ0eXAiOiJKV1QiLCJhbGciOiJIUzI1NiJ9.eyJpc3MiOiI1ODBmOWY1NjYzZjM5MDAwOTM2ZTA3ZmUiLCJleHAiOm51bGx9.8nW7NQwr066mjDZ-UjRXuLpeWBf8y9Vt5G7CoxMchoA,31,24.9,Harris,RM482010310,1.37,OUT,1198,1984,1403,2,,,,,,,,,
58362568b6d33,RMIatTXwithRMS,45 Victoria Rd,EDCOUCH,TX,78538,Victoria,Edcouch,TX,78538,-97.960563659668,26.2975006103516,eyJ0eXAiOiJKV1QiLCJhbGciOiJIUzI1NiJ9.eyJpc3MiOiI1ODBmOWY1NjYzZjM5MDAwOTM2ZTA3ZmUiLCJleHAiOm51bGx9.8nW7NQwr066mjDZ-UjRXuLpeWBf8y9Vt5G7CoxMchoA,33,33,Hidalgo,RM482150030,0.33,OUT,686,2008,6696,6,,,,,,,,,
583624212dde6,RMIatTXwithRMS,16510 Courtland Cir,Spring,TX,77379,16510 COURTLAND CIR,SPRING,TX,77379,-95.527506,30.014277,eyJ0eXAiOiJKV1QiLCJhbGciOiJIUzI1NiJ9.eyJpc3MiOiI1ODBmOWY1NjYzZjM5MDAwOTM2ZTA3ZmUiLCJleHAiOm51bGx9.8nW7NQwr066mjDZ-UjRXuLpeWBf8y9Vt5G7CoxMchoA,41,34,Harris,RM482010410,0.33,OUT,9451,1975,2745,4,1,1,,,,,,,
5836233f5aeb1,RMIatTXwithRMS,15 Old Windsor Way,SUGAR LAND,TX,77479,15 OLD WINDSOR WAY,SUGAR LAND,TX,77479,-95.627522,29.563327,eyJ0eXAiOiJKV1QiLCJhbGciOiJIUzI1NiJ9.eyJpc3MiOiI1ODBmOWY1NjYzZjM5MDAwOTM2ZTA3ZmUiLCJleHAiOm51bGx9.8nW7NQwr066mjDZ-UjRXuLpeWBf8y9Vt5G7CoxMchoA,37,36,Fort Bend,RM481570130,0.47,OUT,4207,1998,4473,3,,,,,,,,,
58361f8327b57,RMIatTXwithRMS,17717 Wild Oak Dr,Houston,TX,77090,17717 WILD OAK DR,HOUSTON,TX,77090,-95.443423,30.026078,eyJ0eXAiOiJKV1QiLCJhbGciOiJIUzI1NiJ9.eyJpc3MiOiI1ODBmOWY1NjYzZjM5MDAwOTM2ZTA3ZmUiLCJleHAiOm51bGx9.8nW7NQwr066mjDZ-UjRXuLpeWBf8y9Vt5G7CoxMchoA,37,31,Harris,RM482010610,1.62,OUT,5629,1972,1776,2,,,,,,,,,
58361f5f0661b,RMIatTXwithRMS,306 Bay Coast Ln,La Porte,TX,77571,306 LAYNE CT,LA PORTE,TX,77571,-95.016376,29.626393,eyJ0eXAiOiJKV1QiLCJhbGciOiJIUzI1NiJ9.eyJpc3MiOiI1ODBmOWY1NjYzZjM5MDAwOTM2ZTA3ZmUiLCJleHAiOm51bGx9.8nW7NQwr066mjDZ-UjRXuLpeWBf8y9Vt5G7CoxMchoA,0.26,0.26,Harris,RM482010531,0.42,,7816,,,,,,,,,,,,
58361d001553d,RMIatTXwithRMS,206 Echo Brook Lane,League City,TX,77539,206 Echo Brook Ln,Dickinson,TX,77539,-95.100700378418,29.4686584472656,eyJ0eXAiOiJKV1QiLCJhbGciOiJIUzI1NiJ9.eyJpc3MiOiI1ODBmOWY1NjYzZjM5MDAwOTM2ZTA3ZmUiLCJleHAiOm51bGx9.8nW7NQwr066mjDZ-UjRXuLpeWBf8y9Vt5G7CoxMchoA,7.1,7.1,Galveston,RM481671340,1.57,,1595,2014,2341,3,1,1,,,,,,,
58361bf9b0a4c,RMIatTXwithRMS,13414 Hartland Lake Ln,Houston,TX,77044,13414 HARTLAND LAKE LN,HOUSTON,TX,77044,-95.164055,29.969676,eyJ0eXAiOiJKV1QiLCJhbGciOiJIUzI1NiJ9.eyJpc3MiOiI1ODBmOWY1NjYzZjM5MDAwOTM2ZTA3ZmUiLCJleHAiOm51bGx9.8nW7NQwr066mjDZ-UjRXuLpeWBf8y9Vt5G7CoxMchoA,22.8,16.9,Harris,RM482010310,3.14,OUT,935,2010,2763,4,1,1,,,,,,,
58361bade4dad,RMIatTXwithRMS,4227 Churchill Place Ct,Fulshear,TX,77441,4227 CHURCHILL PLACE CT,FULSHEAR,TX,77441,-95.849082,29.722486,eyJ0eXAiOiJKV1QiLCJhbGciOiJIUzI1NiJ9.eyJpc3MiOiI1ODBmOWY1NjYzZjM5MDAwOTM2ZTA3ZmUiLCJleHAiOm51bGx9.8nW7NQwr066mjDZ-UjRXuLpeWBf8y9Vt5G7CoxMchoA,51,47,Fort Bend,RM481570300,2.03,OUT,7753,2014,2572,3,,,,,,,,,
58361b465c2ee,RMIatTXwithRMS,1702 McKinley Ave,San Antonio,TX,78210,1702 MCKINLEY AVE,SAN ANTONIO,TX,78210,-98.456568,29.392447,eyJ0eXAiOiJKV1QiLCJhbGciOiJIUzI1NiJ9.eyJpc3MiOiI1ODBmOWY1NjYzZjM5MDAwOTM2ZTA3ZmUiLCJleHAiOm51bGx9.8nW7NQwr066mjDZ-UjRXuLpeWBf8y9Vt5G7CoxMchoA,120.0,116,Bexar,RM480292317,1.16,OUT,20961,1930,1773,1,,,,,,,,,
5836193908459,RMIatTXwithRMS,,,,,,,,,,,eyJ0eXAiOiJKV1QiLCJhbGciOiJIUzI1NiJ9.eyJpc3MiOiI1ODBmOWY1NjYzZjM5MDAwOTM2ZTA3ZmUiLCJleHAiOm51bGx9.8nW7NQwr066mjDZ-UjRXuLpeWBf8y9Vt5G7CoxMchoA,,,,,,,,,,,,,12212 Renwal Way,Houston,TX,77047,0,0,False
58361756bc93d,RMIatTXwithRMS,,,,,,,,,,,eyJ0eXAiOiJKV1QiLCJhbGciOiJIUzI1NiJ9.eyJpc3MiOiI1ODBmOWY1NjYzZjM5MDAwOTM2ZTA3ZmUiLCJleHAiOm51bGx9.8nW7NQwr066mjDZ-UjRXuLpeWBf8y9Vt5G7CoxMchoA,,,,,,,,,,,,,13710 MIRAFLORES CT,RICHMOND,TX,77407,0,0,False
58361740b3d7e,RMIatTXwithRMS,6614 carly park way,houston,TX,77084,6614 CARLY PARK WAY,HOUSTON,TX,77084,-95.669645,29.873004,eyJ0eXAiOiJKV1QiLCJhbGciOiJIUzI1NiJ9.eyJpc3MiOiI1ODBmOWY1NjYzZjM5MDAwOTM2ZTA3ZmUiLCJleHAiOm51bGx9.8nW7NQwr066mjDZ-UjRXuLpeWBf8y9Vt5G7CoxMchoA,43,38,Harris,RM482010310,1.51,OUT,15120,2005,1768,3,1,1,,,,,,,
583617150bf38,RMIatTXwithRMS,16322 QUAIL PLACE DR,Missouri City,TX,77489,16322 QUAIL PLACE DR,MISSOURI CITY,TX,77489,-95.514057,29.590404,eyJ0eXAiOiJKV1QiLCJhbGciOiJIUzI1NiJ9.eyJpc3MiOiI1ODBmOWY1NjYzZjM5MDAwOTM2ZTA3ZmUiLCJleHAiOm51bGx9.8nW7NQwr066mjDZ-UjRXuLpeWBf8y9Vt5G7CoxMchoA,30,29,Fort Bend,RM481570410,2.04,OUT,2014,1979,1221,2,,,,,,,,,
5836169dbb236,RMIatTXwithRMS,1966 Chart Dr,Crosby,TX,77532,1966 CHART DR,CROSBY,TX,77532,-95.104629,29.919756,eyJ0eXAiOiJKV1QiLCJhbGciOiJIUzI1NiJ9.eyJpc3MiOiI1ODBmOWY1NjYzZjM5MDAwOTM2ZTA3ZmUiLCJleHAiOm51bGx9.8nW7NQwr066mjDZ-UjRXuLpeWBf8y9Vt5G7CoxMchoA,18.2,12.4,Harris,RM482010130,2.75,OUT,141,1972,5881,6,2,2,,,,,,,
58361694ecb19,RMIatTXwithRMS,,,,,,,,,,,eyJ0eXAiOiJKV1QiLCJhbGciOiJIUzI1NiJ9.eyJpc3MiOiI1ODBmOWY1NjYzZjM5MDAwOTM2ZTA3ZmUiLCJleHAiOm51bGx9.8nW7NQwr066mjDZ-UjRXuLpeWBf8y9Vt5G7CoxMchoA,,,,,,,,,,,,,13710 MIRAFLORES,RICHMOND,TX,77407,0,0,False
5836164edd823,RMIatTXwithRMS,,,,,,,,,,,eyJ0eXAiOiJKV1QiLCJhbGciOiJIUzI1NiJ9.eyJpc3MiOiI1ODBmOWY1NjYzZjM5MDAwOTM2ZTA3ZmUiLCJleHAiOm51bGx9.8nW7NQwr066mjDZ-UjRXuLpeWBf8y9Vt5G7CoxMchoA,,,,,,,,,,,,,13710 MIRA FLORES CT,RICHMOND,TX,77407,0,0,False
5836163dce00c,RMIatTXwithRMS,,,,,,,,,,,eyJ0eXAiOiJKV1QiLCJhbGciOiJIUzI1NiJ9.eyJpc3MiOiI1ODBmOWY1NjYzZjM5MDAwOTM2ZTA3ZmUiLCJleHAiOm51bGx9.8nW7NQwr066mjDZ-UjRXuLpeWBf8y9Vt5G7CoxMchoA,,,,,,,,,,,,,13710 MIRAFLORES CT,RICHMOND,TX,77407,0,0,False
5836113a9b30b,RMIatTXwithRMS,18411 Rogers pike,San Antonio,TX,78258,18411 ROGERS PIKE,SAN ANTONIO,TX,78258,-98.540433,29.612394,eyJ0eXAiOiJKV1QiLCJhbGciOiJIUzI1NiJ9.eyJpc3MiOiI1ODBmOWY1NjYzZjM5MDAwOTM2ZTA3ZmUiLCJleHAiOm51bGx9.8nW7NQwr066mjDZ-UjRXuLpeWBf8y9Vt5G7CoxMchoA,120.0,120.0,Bexar,RM480292317,1.68,OUT,2192,2000,3097,4,1,1,,,,,,,
58361111ba240,RMIatTXwithRMS,5207 Pinewood Springs Dr,houston,TX,77066,5207 PINEWOOD SPRINGS DR,HOUSTON,TX,77066,-95.497126,29.971778,eyJ0eXAiOiJKV1QiLCJhbGciOiJIUzI1NiJ9.eyJpc3MiOiI1ODBmOWY1NjYzZjM5MDAwOTM2ZTA3ZmUiLCJleHAiOm51bGx9.8nW7NQwr066mjDZ-UjRXuLpeWBf8y9Vt5G7CoxMchoA,37,31,Harris,RM482010090,1.32,OUT,26723,1977,2692,3,1,1,,,,,,,
